     2.11           OBSERVATION DATA    GPS(GPS)            RINEX VERSION / TYPE
convertToRinex 1.14 convertToRINEX OPR  16-Jan-08 22:03 UTC PGM / RUN BY / DATE 
----------------------------------------------------------- COMMENT             
nw1                                                         MARKER NAME         
                                                            MARKER NUMBER       
GNSS Observer       Trimble                                 OBSERVER / AGENCY   
4629118867          R8 Model 2          Version 3.50        REC # / TYPE / VERS 
                    TRM_R8_GNSS                             ANT # / TYPE        
 -1641900.4608 -3664874.3586  4939973.4076                  APPROX POSITION XYZ 
        1.7710        0.0000        0.0000                  ANTENNA: DELTA H/E/N
     1     1     0                                          WAVELENGTH FACT L1/2
     8    C1    D1    D2    L1    L2    P2    S1    S2      # / TYPES OF OBSERV 
  2008     1    16    16    40   15.0000000     GPS         TIME OF FIRST OBS   
  2008     1    16    17    55   30.0000000     GPS         TIME OF LAST OBS    
     0                                                      RCV CLOCK OFFS APPL 
    14                                                      LEAP SECONDS        
    15                                                      # OF SATELLITES     
   G01   192   189   189   192   192   192   192   192      PRN / # OF OBS      
   G02   302   293   293   302   302   302   302   302      PRN / # OF OBS      
   G04   302   293   293   302   302   302   302   302      PRN / # OF OBS      
   G05   302   293   293   302   302   302   302   302      PRN / # OF OBS      
   G06     8     7     7     8     8     8     8     8      PRN / # OF OBS      
   G09   302   301   301   302   302   302   302   302      PRN / # OF OBS      
   G10    24    23    23    24    24    24    24    24      PRN / # OF OBS      
   G12   302   293   293   302   302   302   302   302      PRN / # OF OBS      
   G14   106   105   105   106   106   106   106   106      PRN / # OF OBS      
   G17   302   293   293   302   302   302   302   302      PRN / # OF OBS      
   G20   232   229   221   232   225   225   232   225      PRN / # OF OBS      
   G28     2     1     1     2     2     2     2     2      PRN / # OF OBS      
   G29   126   125   125   126   126   126   126   126      PRN / # OF OBS      
   G30   302   297   297   302   302   302   302   302      PRN / # OF OBS      
   G31    32    31    31    32    32    32    32    32      PRN / # OF OBS      
                                                            END OF HEADER       
 08  1 16 16 41  0.0000000  0 10G01G02G04G05G09G12G14G17G20G30   -0.000438288
  25154812.172 4       464.137 4       361.66046  -1981418.007 4  -1538394.68846
  25154807.58646        39.000          19.000  
  21747840.000 6      2718.460 6      2118.28148  -5009769.690 6  -3861537.23448
  21747833.09448        47.500          35.400  
  20410976.125 7       241.846 7       188.45248  -2363252.148 7  -1830739.45048
  20410971.69148        49.900          39.800  
  22477900.672 6      2943.505 6      2293.64146  -5092297.735 6  -3933084.95346
  22477894.43446        42.900          25.600  
  21374151.461 6     -2403.488 6     -1872.84848    690075.400 6    523196.03848
  21374147.01248        47.300          34.700  
  21767423.141 6      2193.418 6      1709.15748  -4326242.018 6  -3351941.61048
  21767417.82848        46.600          35.100  
  24862189.039 3     -1135.731 3      -884.98845   -736812.959 3   -576358.71645
  24862184.72345        36.000          18.300  
  22197112.414 6     -2988.095 6     -2328.38548   1639942.871 6   1255924.30448
  22197107.43848        46.100          35.900  
  23921179.586 6      -905.078 6      -705.25646  -1021045.260 6   -796090.70246
  23921173.87946        42.600          22.500  
  24321955.398 5      3434.565 5      2676.28446  -4226099.979 5  -3270397.87546
  24321950.03146        41.500          20.100  
 08  1 16 16 41 15.0000000  0 10G01G02G04G05G09G12G14G17G20G30   -0.000435770
  25153515.406 4       453.946 4       353.72645  -1988227.202 4  -1543700.57145
  25153512.39845        38.400          18.600  
  21740100.594 6      2711.353 6      2112.74148  -5050439.979 6  -3893228.35748
  21740093.80548        47.400          35.400  
  20410318.727 7       230.178 7       179.36048  -2366704.823 7  -1833429.84748
  20410313.96948        49.400          40.100  
  22469512.953 6      2938.479 6      2289.72546  -5136374.922 6  -3967430.82846
  22469507.48446        43.000          24.700  
  21381043.563 7     -2414.251 7     -1881.23448    726289.172 7    551414.54148
  21381038.32848        47.600          34.900  
  21761179.422 6      2187.340 6      1704.42248  -4359052.122 6  -3377507.93848
  21761174.07448        46.600          34.800  
  24865461.039 5     -1145.836 5      -892.85745   -719625.416 5   -562965.85745
  24865455.37545        39.200          18.600  
  22205654.734 6     -2992.616 6     -2331.90848   1684832.108 6   1290902.92248
  22205649.43048        46.200          36.300  
  23923794.031 5      -916.022 5      -713.78546  -1007304.924 5   -785383.93146
  23923788.92246        41.400          22.300  
  24312159.234 6      3432.067 6      2674.34046  -4277580.981 6  -3310512.97146
  24312153.41846        42.800          20.400  
 08  1 16 16 41 30.0000000  0 10G01G02G04G05G09G12G14G17G20G30   -0.000433241
  25152250.336 5       443.745 5       345.77545  -1994883.376 5  -1548887.19345
  25152245.80145        39.500          17.800  
  21732382.227 7      2704.214 7      2107.17948  -5091003.190 7  -3924836.05048
  21732375.35948        47.700          35.500  
  20409695.039 7       218.506 7       170.26548  -2369982.417 7  -1835983.81548
  20409690.57048        49.300          39.900  
  22461139.656 6      2933.425 6      2285.78547  -5180376.299 6  -4001717.60747
  22461133.24647        42.900          26.500  
  21387965.008 6     -2424.997 6     -1889.60848    762664.129 6    579758.66248
  21387960.27348        47.500          34.900  
  21754953.594 7      2181.243 7      1699.66948  -4391770.762 7  -3403002.97048
  21754948.09448        47.800          34.800  
  24868760.195 4     -1155.933 4      -900.72546   -702286.423 4   -549454.98946
  24868755.04346        38.900          19.300  
  22214209.961 6     -2997.129 6     -2335.42548   1729789.048 6   1325934.29648
  22214204.68448        46.200          36.600  
  23926440.203 5      -926.978 5      -722.31946   -993400.254 5   -774549.15046
  23926434.61746        41.900          22.500  
  24302368.188 5      3429.545 5      2672.37446  -4329024.158 5  -3350598.57246
  24302364.45346        41.300          19.600  
 08  1 16 16 41 45.0000000  0 10G01G02G04G05G09G12G14G17G20G30   -0.000430700
  25151011.445 4       433.700 4       337.95146  -2001388.882 4  -1553956.45646
  25151007.71946        38.000          19.000  
  21724682.836 7      2697.230 7      2101.73748  -5131461.639 7  -3956362.10548
  21724676.30148        47.800          35.600  
  20409104.438 7       206.994 7       161.29548  -2373087.328 7  -1838403.23348
  20409099.60248        49.200          40.500  
  22452780.383 6      2928.517 6      2281.96247  -5224304.058 6  -4035947.04547
  22452774.57447        43.000          26.700  
  21394917.125 7     -2435.564 7     -1897.84148    799197.589 7    608226.28248
  21394912.00048        47.600          35.100  
  21748744.109 6      2175.293 6      1695.03548  -4424400.159 6  -3428428.48848
  21748738.77048        46.400          35.100  
  24872087.875 4     -1165.864 4      -908.46545   -684798.471 4   -535828.01245
  24872082.44145        38.800          17.800  
  22222776.930 6     -3001.468 6     -2338.80548   1774811.060 6   1361016.37448
  22222771.69948        46.600          36.100  
  23929116.633 5      -937.754 5      -730.71946   -979333.939 5   -763588.36246
  23929111.35246        42.300          22.500  
  24292586.328 5      3427.171 5      2670.52146  -4380431.717 5  -3390656.38646
  24292582.12946        40.600          20.900  
 08  1 16 16 42  0.0000000  0 10G01G02G04G05G09G12G14G17G20G30   -0.000428148
  25149803.555 4       423.557 4       330.04545  -2007742.231 4  -1558907.13745
  25149798.92245        37.900          16.900  
  21717003.875 7      2690.127 7      2096.20348  -5171813.549 7  -3987805.14648
  21716997.37548        47.600          35.800  
  20408546.516 7       195.394 7       152.25548  -2376018.232 7  -1840687.05248
  20408542.28548        48.900          40.500  
  22444435.594 6      2923.492 6      2278.04447  -5268156.436 6  -4070117.70147
  22444430.18447        43.700          26.700  
  21401899.750 7     -2446.198 7     -1906.12948    835890.566 7    636818.21648
  21401894.61748        48.000          34.900  
  21742552.023 6      2169.229 6      1690.30848  -4456938.597 6  -3453783.10548
  21742546.85248        46.200          34.700  
  24875444.664 4     -1175.850 4      -916.24746   -667160.725 4   -522084.30546
  24875439.02346        38.500          19.000  
  22231357.539 6     -3005.893 6     -2342.25348   1819899.450 6   1396150.17148
  22231352.24248        46.200          35.900  
  23931824.508 5      -948.636 5      -739.19746   -965104.406 5   -752500.41146
  23931818.98846        42.200          20.900  
  24282811.602 5      3424.694 5      2668.59646  -4431802.131 5  -3430685.33346
  24282806.06646        41.700          19.600  
 08  1 16 16 42 15.0000000  0 10G01G02G04G05G09G12G14G17G20G30   -0.000425587
  25148622.188 4       413.461 4       322.17645  -2013944.142 4  -1563739.77845
  25148618.18845        38.100          16.900  
  21709345.695 7      2683.059 7      2090.69448  -5212059.431 7  -4019165.56148
  21709339.14148        47.600          36.100  
  20408021.922 7       183.839 7       143.25148  -2378775.820 7  -1842835.82148
  20408017.38748        49.100          40.100  
  22436104.773 6      2918.500 6      2274.15847  -5311933.934 6  -4104230.06547
  22436098.93047        42.600          27.400  
  21408911.820 6     -2456.760 6     -1914.35848    872741.974 6    665533.58448
  21408907.50848        47.500          35.000  
  21736377.633 6      2163.192 6      1685.60548  -4489386.483 6  -3479067.17548
  21736372.31648        47.200          34.900  
  24878828.766 4     -1185.787 4      -923.99145   -649373.925 4   -508224.43345
  24878823.76645        38.600          18.300  
  22239949.828 6     -3010.258 6     -2345.65648   1865053.325 6   1431335.01448
  22239944.61348        45.700          35.700  
  23934562.273 5      -959.450 5      -747.62646   -950712.650 5   -741286.02846
  23934557.90646        42.000          22.600  
  24273043.156 5      3422.240 5      2666.68046  -4483135.735 5  -3470685.53346
  24273037.97346        40.400          22.000  
 08  1 16 16 42 30.0000000  0 10G01G02G04G05G09G12G14G17G20G30   -0.000423014
  25147470.930 4       403.380 4       314.32246  -2019994.837 4  -1568454.60446
  25147466.89146        38.800          19.300  
  21701707.344 7      2676.002 7      2085.19648  -5252199.462 7  -4050443.49648
  21701701.00848        47.900          36.600  
  20407530.000 7       172.303 7       134.26248  -2381360.360 7  -1844849.75048
  20407525.38348        49.200          40.200  
  22427788.492 6      2913.521 6      2270.27447  -5355636.742 6  -4138284.16947
  22427783.39547        42.600          28.400  
  21415954.422 7     -2467.273 7     -1922.55048    909751.076 7    694371.83948
  21415950.01648        47.900          35.500  
  21730220.148 6      2157.170 6      1680.91148  -4521744.036 6  -3504280.84248
  21730214.76648        47.300          34.700  
  24882242.859 5     -1195.697 5      -931.70945   -631438.471 5   -494248.79745
  24882237.08645        40.500          18.300  
  22248554.188 6     -3014.591 6     -2349.03148   1910272.185 6   1466570.47848
  22248548.98448        46.300          36.000  
  23937332.547 5      -970.248 5      -756.03746   -936158.931 5   -729945.46946
  23937327.03146        41.700          21.800  
  24263280.789 5      3419.821 5      2664.79146  -4534433.045 5  -3510657.39346
  24263276.69946        41.500          19.900  
 08  1 16 16 42 45.0000000  0 10G01G02G04G05G09G12G14G17G20G30   -0.000420429
  25146348.422 4       393.281 4       306.45045  -2025894.046 4  -1573051.35045
  25146344.91445        38.800          18.300  
  21694089.242 7      2668.901 7      2079.66448  -5292232.979 7  -4081638.44848
  21694082.52748        47.700          37.000  
  20407071.258 7       160.762 7       125.26948  -2383771.787 7  -1846728.78548
  20407066.54748        48.800          40.600  
  22419486.242 6      2908.499 6      2266.36347  -5399264.232 6  -4172279.61047
  22419480.69147        42.800          27.400  
  21423027.086 7     -2477.779 7     -1930.73548    946917.754 7    723332.86748
  21423022.73848        47.700          35.400  
  21724079.695 6      2151.124 6      1676.20048  -4554010.889 6  -3529423.84148
  21724074.91048        46.800          35.500  
  24885683.156 4     -1205.606 4      -939.43246   -613354.388 4   -480157.31046
  24885677.61346        38.500          19.300  
  22257171.375 6     -3018.931 6     -2352.41448   1955556.154 6   1501856.68648
  22257166.82848        46.100          36.300  
  23940133.602 5      -981.045 5      -764.45046   -921443.262 5   -718478.71746
  23940127.28546        42.300          21.800  
  24253527.086 5      3417.343 5      2662.87246  -4585693.183 5  -3550600.47046
  24253521.84046        41.700          21.700  
 08  1 16 16 43  0.0000000  0 10G01G02G04G05G09G12G14G17G20G30   -0.000417833
  25145254.680 5       383.227 5       298.62146  -2031642.444 5  -1577530.66046
  25145250.00846        39.200          19.000  
  21686491.086 7      2661.846 7      2074.16548  -5332160.678 7  -4112750.92948
  21686484.90648        48.300          37.400  
  20406645.094 7       149.268 7       116.31348  -2386010.814 7  -1848473.47948
  20406640.78948        48.600          40.600  
  22411198.758 6      2903.521 6      2262.48447  -5442817.054 6  -4206216.87247
  22411192.95747        43.100          27.200  
  21430129.484 7     -2488.214 7     -1938.86848    984240.961 7    752415.88348
  21430124.73848        48.400          35.300  
  21717956.961 6      2145.121 6      1671.52348  -4586187.706 6  -3554496.68548
  21717951.79748        47.500          35.000  
  24889152.266 4     -1215.443 4      -947.09945   -595122.739 4   -465950.82445
  24889146.87145        38.300          18.600  
  22265800.953 6     -3023.199 6     -2355.73948   2000904.145 6   1537192.76848
  22265795.91848        46.000          36.100  
  23942964.484 5      -991.793 5      -772.82646   -906566.366 5   -706886.33146
  23942958.26246        41.300          22.300  
  24243777.914 4      3414.922 4      2660.97346  -4636917.011 4  -3590515.06346
  24243775.08646        38.600          20.900  
 08  1 16 16 43 15.0000000  0 10G01G02G04G05G09G12G14G17G20G30   -0.000415228
  25144190.211 5       373.080 5       290.71146  -2037238.639 5  -1581891.32146
  25144185.62946        39.500          20.100  
  21678913.836 7      2654.679 7      2068.58048  -5371980.862 7  -4143779.62848
  21678907.36748        48.300          37.000  
  20406252.109 7       137.685 7       107.28748  -2388076.086 7  -1850082.78948
  20406247.99648        49.200          40.900  
  22402925.281 6      2898.429 6      2258.51847  -5486293.496 6  -4240094.63947
  22402919.75847        43.400          27.900  
  21437262.367 7     -2498.723 7     -1947.05648   1021721.813 7    781621.72948
  21437257.75448        47.800          35.800  
  21711851.352 6      2138.990 6      1666.74548  -4618272.547 6  -3579497.86348
  21711845.99248        46.000          35.000  
  24892650.141 4     -1225.362 4      -954.82845   -576742.303 4   -451628.40045
  24892644.77045        37.800          18.300  
  22274443.023 6     -3027.552 6     -2359.13148   2046317.417 6   1572579.72948
  22274437.99648        45.700          35.700  
  23945825.852 5     -1002.612 5      -781.25746   -891527.182 5   -695167.47046
  23945820.35546        42.300          21.700  
  24234038.820 5      3412.375 5      2658.99446  -4688102.639 5  -3630399.97246
  24234034.96146        39.800          20.900  
 08  1 16 16 43 30.0000000  0 10G01G02G04G05G09G12G14G17G20G30   -0.000412613
  25143154.938 5       362.972 5       282.83746  -2042683.221 5  -1586133.87346
  25143149.60946        39.500          19.300  
  21671357.086 7      2647.534 7      2063.01448  -5411693.879 7  -4174724.83548
  21671350.00448        48.100          38.000  
  20405892.156 7       126.127 7        98.28148  -2389967.991 7  -1851556.99748
  20405887.90248        49.300          40.500  
  22394666.461 6      2893.361 6      2254.56547  -5529693.903 6  -4273913.11447
  22394660.86347        43.400          27.400  
  21444424.172 7     -2509.170 7     -1955.19748   1059359.366 7    810949.68948
  21444419.55948        47.600          35.300  
  21705763.508 7      2132.888 7      1661.99148  -4650265.872 7  -3604427.72348
  21705757.69948        47.600          35.200  
  24896176.789 4     -1235.237 4      -962.52246   -558213.750 4   -437190.56846
  24896171.16046        38.400          20.100  
  22283096.914 6     -3031.849 6     -2362.47948   2091795.159 6   1608016.92148
  22283092.13348        45.700          35.300  
  23948717.781 5     -1013.394 5      -789.66046   -876326.268 5   -683322.57046
  23948713.06346        41.600          21.800  
  24224306.055 5      3409.856 5      2657.03446  -4739250.485 5  -3670255.47946
  24224300.32846        40.500          20.900  
 08  1 16 16 43 45.0000000  0 10G01G02G04G05G09G12G14G17G20G30   -0.000409985
  25142146.563 5       352.731 5       274.85546  -2047974.191 5  -1590256.70546
  25142143.15646        40.400          20.900  
  21663820.156 7      2640.243 7      2057.33248  -5451297.527 7  -4205584.80848
  21663814.04348        48.100          37.400  
  20405565.602 7       114.457 7        89.18748  -2391684.845 7  -1852894.80048
  20405561.37148        49.800          40.700  
  22386423.023 6      2888.144 6      2250.50347  -5573016.056 6  -4307670.66247
  22386417.68047        43.200          28.500  
  21451616.898 7     -2519.719 7     -1963.41548   1097155.147 7    840400.92048
  21451612.07048        47.800          35.200  
  21699693.203 6      2126.655 6      1657.13348  -4682165.691 6  -3629284.72248
  21699687.34848        47.300          35.600  
  24899730.297 4     -1245.216 4      -970.29746   -539535.514 4   -422636.11546
  24899725.01646        39.100          19.000  
  22291763.391 6     -3036.260 6     -2365.91648   2137339.062 6   1643505.66548
  22291758.69548        45.200          35.500  
  23951641.594 5     -1024.295 5      -798.15146   -860961.836 5   -671350.30746
  23951636.40246        41.600          21.100  
  24214579.094 4      3407.206 4      2654.96446  -4790358.567 4  -3710079.93546
  24214575.36346        38.400          21.300  
 08  1 16 16 44  0.0000000  0 10G01G02G04G05G09G12G14G17G20G30   -0.000407347
  25141169.023 5       342.732 5       267.06746  -2053115.170 5  -1594262.70646
  25141165.06346        40.100          20.600  
  21656304.063 7      2633.189 7      2051.83448  -5490795.362 7  -4236362.32648
  21656297.67648        49.000          37.300  
  20405271.469 7       103.049 7        80.29848  -2393230.581 7  -1854099.27448
  20405266.91048        49.300          41.000  
  22378192.844 6      2883.172 6      2246.62847  -5616263.638 6  -4341370.08247
  22378187.17647        42.900          28.100  
  21458838.211 7     -2529.986 7     -1971.41748   1135104.931 7    869972.17248
  21458833.53148        48.300          35.700  
  21693639.633 6      2120.661 6      1652.46448  -4713975.606 6  -3654071.67448
  21693634.69148        47.000          36.100  
  24903312.883 4     -1254.933 4      -977.87146   -520711.520 4   -407968.05146
  24903307.21546        38.600          19.300  
  22300442.133 6     -3040.411 6     -2369.15248   2182945.233 6   1679042.94448
  22300436.94148        45.100          35.300  
  23954595.219 5     -1034.937 5      -806.44546   -845437.776 5   -659253.63746
  23954590.36346        40.400          20.900  
  24204862.516 5      3404.773 5      2653.06846  -4841430.157 5  -3749875.94846
  24204857.19546        41.700          21.700  
 08  1 16 16 44 15.0000000  0 10G01G02G04G05G09G12G14G17G20G30   -0.000404697
  25140219.336 4       332.589 4       259.15846  -2058104.006 4  -1598150.07746
  25140215.28546        38.700          19.600  
  21648808.531 7      2625.971 7      2046.21148  -5530184.926 7  -4267055.48848
  21648801.75848        48.000          37.500  
  20405010.242 7        91.479 7        71.28248  -2394602.763 7  -1855168.50748
  20405005.59448        49.300          40.900  
  22369978.602 6      2878.028 6      2242.61947  -5659434.052 6  -4375009.36647
  22369972.53947        43.100          27.900  
  21466089.438 7     -2540.369 7     -1979.50848   1173210.471 7    899664.79448
  21466084.93848        48.000          35.600  
  21687604.141 6      2114.496 6      1647.65948  -4745693.049 6  -3678786.56048
  21687598.68048        47.000          35.600  
  24906923.594 4     -1264.793 4      -985.54946   -501739.621 4   -393184.80946
  24906917.71546        38.000          19.000  
  22309133.000 6     -3044.708 6     -2372.49948   2228615.848 6   1714630.42948
  22309128.02748        44.300          35.100  
  23957580.438 5     -1045.730 5      -814.85446   -829751.830 5   -647030.83446
  23957575.33246        41.200          21.100  
  24195150.055 3      3402.197 3      2651.06546  -4892463.105 3  -3789641.92646
  24195145.67246        37.300          19.900  
 08  1 16 16 44 30.0000000  0 10G01G02G04G05G09G12G14G17G20G30   -0.000402037
  25139299.438 5       322.454 5       251.26346  -2062940.810 5  -1601919.02646
  25139294.64846        40.500          19.600  
  21641333.391 7      2618.756 7      2040.58948  -5569466.270 7  -4297664.31648
  21641326.92648        48.400          38.200  
  20404782.094 7        79.931 7        62.28548  -2395801.733 7  -1856102.77848
  20404777.45348        49.600          41.200  
  22361777.531 6      2872.884 6      2238.60947  -5702527.310 6  -4408588.50647
  22361772.42247        43.200          27.700  
  21473370.469 7     -2550.717 7     -1987.57048   1211471.226 7    929478.33748
  21473365.44148        48.500          36.200  
  21681586.086 7      2108.336 7      1642.86048  -4777318.094 7  -3703429.45448
  21681580.57848        47.800          35.100  
  24910561.492 4     -1274.609 4      -993.20446   -482620.489 4   -378286.75346
  24910555.74646        38.300          19.600  
  22317836.109 6     -3048.968 6     -2375.81948   2274350.366 6   1750267.70748
  22317830.77748        44.700          35.200  
  23960594.984 5     -1056.491 5      -823.24146   -813904.470 5   -634682.22346
  23960591.48446        40.500          21.800  
  24185445.719 5      3399.619 5      2649.05446  -4943457.386 5  -3829377.73946
  24185441.84046        41.000          20.900  
 08  1 16 16 44 45.0000000  0 10G01G02G04G05G09G12G14G17G20G30   -0.000399366
  25138407.914 5       312.386 5       243.42046  -2067626.604 5  -1605570.32246
  25138403.16846        39.900          20.600  
  21633878.813 7      2611.597 7      2035.01048  -5608640.221 7  -4328189.47548
  21633872.01648        48.700          38.300  
  20404586.523 7        68.455 7        53.34249  -2396828.559 7  -1856902.90349
  20404582.14849        48.800          41.300  
  22353591.523 6      2867.789 6      2234.64347  -5745544.137 6  -4442108.14947
  22353585.64147        43.200          26.400  
  21480680.680 7     -2560.986 7     -1995.57548   1249886.017 7    959411.95648
  21480676.11348        48.800          35.200  
  21675585.469 7      2102.234 7      1638.10448  -4808851.598 7  -3728001.00948
  21675580.20748        47.700          35.300  
  24914226.727 4     -1284.345 4     -1000.78745   -463355.309 4   -363274.94645
  24914221.58245        37.600          18.300  
  22326551.281 6     -3053.142 6     -2379.07148   2320147.494 6   1785953.77148
  22326545.81348        44.700          35.000  
  23963643.586 5     -1067.184 5      -831.56746   -797896.711 5   -622208.72246
  23963637.01246        41.800          20.400  
  24175750.867 5      3397.101 5      2647.09146  -4994413.900 5  -3869084.10746
  24175745.43446        40.100          22.800  
 08  1 16 16 45  0.0000000  0 10G01G02G04G05G09G12G14G17G20G30   -0.000396688
  25137544.992 5       302.423 5       235.65646  -2072162.947 5  -1609105.16546
  25137539.66046        40.000          19.600  
  21626444.891 7      2604.516 7      2029.49248  -5647707.957 7  -4358631.85148
  21626437.81348        48.700          38.200  
  20404423.789 7        57.089 7        44.48549  -2397684.899 7  -1857570.18449
  20404419.11349        49.100          41.400  
  22345420.297 6      2862.788 6      2230.74347  -5788485.955 6  -4475569.30147
  22345414.80147        43.900          27.500  
  21488019.266 7     -2571.121 7     -2003.47148   1288452.834 7    989464.01548
  21488014.73848        48.200          34.600  
  21669602.305 6      2096.224 6      1633.42248  -4840294.956 6  -3752502.33248
  21669596.43048        47.500          35.200  
  24917921.094 4     -1293.958 4     -1008.27945   -443945.933 4   -348150.76645
  24917915.18845        37.900          17.800  
  22335277.227 6     -3057.201 6     -2382.23348   2366005.510 6   1821687.27148
  22335272.13348        44.700          34.200  
  23966718.789 5     -1077.755 5      -839.81246   -781730.381 5   -609611.54546
  23966713.33246        41.600          21.700  
  24166059.055 4      3394.667 4      2645.19046  -5045333.903 4  -3908761.95346
  24166054.81346        38.400          19.300  
 08  1 16 16 45 15.0000000  0 10G01G02G04G05G09G12G14G17G20G30   -0.000393997
  25136710.641 4       292.214 4       227.69746  -2076546.158 4  -1612520.62746
  25136705.76246        39.000          19.000  
  21619031.344 7      2597.179 7      2023.77548  -5686665.637 7  -4388988.48148
  21619024.27748        49.200          38.000  
  20404294.148 7        45.471 7        35.43249  -2398366.957 7  -1858101.66249
  20404289.68849        48.100          41.300  
  22337262.984 5      2857.522 5      2226.64147  -5831348.783 5  -4508968.91347
  22337258.66047        42.000          28.100  
  21495387.813 7     -2581.472 7     -2011.53648   1327174.908 7   1019637.04948
  21495383.25448        48.300          34.100  
  21663636.438 6      2089.967 6      1628.54548  -4871644.455 6  -3776930.51048
  21663630.78148        45.800          35.500  
  24921642.117 3     -1303.805 3     -1015.95246   -424388.864 3   -332911.48046
  24921636.76646        37.100          19.600  
  22344016.180 6     -3061.496 6     -2385.58148   2411927.948 6   1857470.97848
  22344010.93448        44.400          34.600  
  23969826.789 5     -1088.571 5      -848.23546   -765401.822 5   -596888.02446
  23969821.02046        40.300          20.600  
  24156378.227 5      3391.970 5      2643.10146  -5096213.451 5  -3948408.46846
  24156372.21546        42.300          20.400  
 08  1 16 16 45 30.0000000  0 10G01G02G04G05G09G12G14G17G20G30   -0.000391296
  25135904.633 4       282.177 4       219.87846  -2080778.813 4  -1615818.79346
  25135900.36346        38.900          19.000  
  21611638.500 7      2590.006 7      2018.18548  -5725515.720 7  -4419261.25948
  21611631.94548        49.300          37.300  
  20404196.922 7        34.045 7        26.52849  -2398877.636 7  -1858499.58949
  20404192.34449        48.800          41.700  
  22329121.430 5      2852.422 5      2222.66647  -5874135.114 5  -4542308.89647
  22329115.90647        42.200          27.500  
  21502785.164 7     -2591.620 7     -2019.44348   1366049.204 7   1049928.69748
  21502780.80148        48.400          34.700  
  21657688.328 6      2083.843 6      1623.77448  -4902902.102 6  -3801287.12048
  21657682.65648        47.100          35.600  
  24925391.320 4     -1313.472 4     -1023.48446   -404686.779 4   -317559.21646
  24925386.04346        38.300          19.000  
  22352767.156 6     -3065.597 6     -2388.77648   2457911.906 6   1893302.61948
  22352761.73848        44.100          35.100  
  23972963.992 5     -1099.192 5      -856.51446   -748913.943 5   -584040.31446
  23972958.37946        42.000          20.900  
  24146702.813 5      3389.442 5      2641.11946  -5147055.082 5  -3988025.26046
  24146698.46146        40.800          21.500  
 08  1 16 16 45 45.0000000  0 10G01G02G04G05G09G12G14G17G20G30   -0.000388586
  25135128.180 5       272.180 5       212.08846  -2084861.510 5  -1619000.10846
  25135123.11346        39.800          19.300  
  21604266.031 7      2582.863 7      2012.62048  -5764258.667 7  -4449450.56048
  21604258.82848        49.100          37.600  
  20404132.055 7        22.665 7        17.66148  -2399217.606 7  -1858764.50148
  20404127.54748        48.000          40.900  
  22320993.875 6      2847.341 6      2218.70847  -5916845.233 6  -4575589.51347
  22320988.49247        42.600          28.200  
  21510211.109 7     -2601.695 7     -2027.29648   1405074.635 7   1080338.13148
  21510206.71548        48.800          34.700  
  21651757.570 6      2077.761 6      1619.03548  -4934068.515 6  -3825572.63848
  21651751.89548        45.700          35.200  
  24929168.867 3     -1323.058 3     -1030.95645   -384840.906 3   -302094.88345
  24929162.59045        36.800          18.600  
  22361528.633 6     -3069.641 6     -2391.92848   2503956.517 6   1929181.53948
  22361523.48848        44.100          34.800  
  23976132.023 5     -1109.768 5      -864.75246   -732267.425 5   -571069.03746
  23976126.12946        41.300          21.300  
  24137035.523 6      3386.936 6      2639.16746  -5197859.119 6  -4027612.76846
  24137030.92646        42.500          21.300  
 08  1 16 16 46  0.0000000  0 10G01G02G04G05G09G12G14G17G20G30   -0.000385866
  25134380.430 5       261.998 5       204.15646  -2088791.478 5  -1622062.44246
  25134375.26646        39.900          20.100  
  21596914.492 7      2575.514 7      2006.89448  -5802891.379 7  -4479553.97148
  21596907.62948        47.800          37.700  
  20404100.586 7        11.094 7         8.64548  -2399384.017 7  -1858894.17848
  20404095.90648        48.400          40.700  
  22312881.086 6      2842.067 6      2214.59747  -5959476.231 6  -4608808.46447
  22312876.10947        42.700          28.300  
  21517667.445 6     -2611.937 6     -2035.27548   1444253.688 6   1110867.25748
  21517662.47748        47.400          34.600  
  21645844.625 6      2071.486 6      1614.14548  -4965140.800 6  -3849784.80748
  21645838.97748        47.200          36.200  
  24932972.422 4     -1332.819 4     -1038.55845   -364848.621 4   -286516.51245
  24932966.49645        38.300          18.600  
  22370302.969 6     -3073.858 6     -2395.21348   2550064.393 6   1965109.73548
  22370297.66848        43.700          34.800  
  23979330.508 5     -1120.524 5      -873.13446   -715459.563 5   -557972.02146
  23979324.66846        41.100          22.000  
  24127376.094 5      3384.229 5      2637.06746  -5248622.546 5  -4067168.77646
  24127369.62146        40.100          19.600  
 08  1 16 16 46 15.0000000  0 10G01G02G04G05G09G12G14G17G20G30   -0.000383135
  25133661.383 5       251.924 5       196.30646  -2092570.331 5  -1625007.03246
  25133656.47346        40.400          20.600  
  21589583.586 7      2568.249 7      2001.23248  -5841415.108 7  -4509572.45148
  21589576.28148        49.000          37.900  
  20404101.336 7        -0.360 7        -0.28048  -2399378.623 7  -1858889.97548
  20404096.89148        48.800          41.100  
  22304783.930 6      2836.878 6      2210.55547  -6002029.406 6  -4641966.78747
  22304779.39847        43.200          27.900  
  21525151.391 7     -2622.043 7     -2043.14948   1483584.331 7   1141514.49848
  21525146.96948        47.800          34.800  
  21639949.547 6      2065.304 6      1609.32848  -4996120.366 6  -3873924.73148
  21639943.88348        47.200          36.000  
  24936805.344 4     -1342.462 4     -1046.07445   -344711.696 4   -270825.40245
  24936799.23045        37.700          18.300  
  22379088.531 6     -3077.952 6     -2398.40448   2596233.668 6   2001085.79148
  22379083.52748        44.200          34.400  
  23982559.117 5     -1131.155 5      -881.41946   -698492.240 5   -544750.73846
  23982553.49646        40.800          21.800  
  24117723.484 5      3381.637 5      2635.03646  -5299347.098 5  -4106694.32146
  24117718.56646        41.100          19.600  
 08  1 16 16 46 30.0000000  0 10G01G02G04G05G09G12G14G17G20G30   -0.000380396
  25132971.078 5       242.011 5       188.57846  -2096200.493 5  -1627835.69746
  25132965.81646        40.600          20.100  
  21582272.820 7      2561.150 7      1995.70148  -5879832.354 7  -4539507.96148
  21582266.00448        49.200          38.400  
  20404134.758 7       -11.654 7        -9.08149  -2399203.813 7  -1858753.75549
  20404130.27049        49.400          41.300  
  22296700.516 6      2831.847 6      2206.63347  -6044507.105 6  -4675066.27647
  22296695.94547        42.900          27.800  
  21532664.344 7     -2631.954 7     -2050.87348   1523063.645 7   1172277.59548
  21532659.66048        48.300          35.100  
  21634071.805 7      2059.269 7      1604.62548  -5027009.403 7  -3897994.10348
  21634066.31348        47.800          35.700  
  24940663.313 4     -1351.927 4     -1053.45045   -324432.785 4   -255023.64845
  24940658.34845        37.900          18.600  
  22387885.656 6     -3081.881 6     -2401.46548   2642461.880 6   2037107.76748
  22387880.52748        44.600          34.200  
  23985816.672 5     -1141.611 5      -889.56846   -681368.069 5   -531407.21946
  23985812.77346        42.100          22.200  
  24108078.203 6      3379.168 6      2633.11846  -5350034.624 6  -4146191.08546
  24108073.92246        42.700          22.200  
 08  1 16 16 46 45.0000000  0 10G01G02G04G05G09G12G14G17G20G30   -0.000377647
  25132308.414 5       231.963 5       180.75146  -2099679.936 5  -1630546.96846
  25132303.68446        39.500          19.000  
  21574983.305 7      2553.895 7      1990.04748  -5918140.777 7  -4569358.67048
  21574975.82048        49.100          38.000  
  20404200.750 7       -23.065 7       -17.97348  -2398857.830 7  -1858484.16248
  20404196.40248        49.100          40.900  
  22288632.383 6      2826.650 6      2202.58547  -6086906.849 6  -4708105.05447
  22288627.39547        43.700          28.400  
  21540205.531 6     -2641.980 6     -2058.68548   1562693.341 6   1203157.86248
  21540200.73848        47.300          34.500  
  21628211.164 6      2053.090 6      1599.81048  -5057805.754 6  -3921991.26048
  21628205.67248        47.200          35.900  
  24944549.641 4     -1361.501 4     -1060.90945   -304010.266 4   -239110.01245
  24944544.35245        37.900          18.300  
  22396693.945 6     -3085.922 6     -2404.61448   2688750.703 6   2073176.96948
  22396688.86748        43.800          34.200  
  23989106.625 5     -1152.220 5      -897.83246   -664084.775 5   -517939.74046
  23989101.24246        40.900          21.300  
  24098439.289 5      3376.577 5      2631.10346  -5400683.285 5  -4185657.63146
  24098434.10246        41.300          20.400  
 08  1 16 16 47  0.0000000  0 10G01G02G04G05G09G12G14G17G20G30   -0.000374889
  25131674.617 4       221.956 4       172.95245  -2103009.273 4  -1633141.24845
  25131670.03545        38.800          18.600  
  21567713.930 7      2546.678 7      1984.42548  -5956340.951 7  -4599125.03848
  21567706.78148        48.800          38.200  
  20404298.906 7       -34.436 7       -26.83348  -2398341.291 7  -1858081.66648
  20404294.52748        48.900          40.800  
  22280578.945 6      2821.493 6      2198.56547  -6129229.240 6  -4741083.53647
  22280573.37547        42.900          28.300  
  21547774.977 7     -2651.931 7     -2066.43848   1602472.300 7   1234154.43848
  21547770.58648        47.800          34.600  
  21622368.227 6      2046.940 6      1595.01948  -5088509.857 6  -3945916.54248
  21622362.62148        47.500          35.700  
  24948463.648 4     -1371.027 4     -1068.33045   -283444.863 4   -223085.06445
  24948458.10245        38.100          18.300  
  22405513.820 6     -3089.908 6     -2407.71948   2735099.320 6   2109292.75748
  22405508.57048        43.900          33.900  
  23992425.664 5     -1162.764 5      -906.04946   -646643.320 5   -504349.00746
  23992420.03946        39.400          19.900  
  24088807.859 5      3374.013 5      2629.09946  -5451293.483 5  -4225094.11746
  24088803.64846        41.800          20.600  
 08  1 16 16 47 15.0000000  0 10G01G02G04G05G09G12G14G17G20G30   -0.000372122
  25131069.398 5       211.927 5       165.13846  -2106188.184 5  -1635618.31846
  25131065.10246        39.400          19.900  
  21560465.453 7      2539.420 7      1978.76948  -5994432.257 7  -4628806.56648
  21560458.52348        49.500          38.000  
  20404429.711 7       -45.827 7       -35.70948  -2397653.887 7  -1857546.02848
  20404425.15248        48.700          40.400  
  22272539.750 6      2816.292 6      2194.51347  -6171473.617 6  -4774001.22947
  22272534.32847        43.400          28.200  
  21555373.117 7     -2661.885 7     -2074.19548   1642400.568 7   1265267.36148
  21555368.66848        48.200          34.700  
  21616543.117 6      2040.753 6      1590.19748  -5119121.149 6  -3969769.49348
  21616537.83248        47.400          35.700  
  24952404.297 4     -1380.551 4     -1075.75545   -262736.601 4   -206948.74445
  24952398.93845        37.400          17.800  
  22414344.633 6     -3093.908 6     -2410.83648   2781507.940 6   2145455.30548
  22414339.77048        44.500          34.300  
  23995774.344 5     -1173.294 5      -914.25646   -629043.905 5   -490635.17146
  23995769.27046        39.700          20.600  
  24079187.547 6      3371.393 6      2627.06146  -5501864.371 6  -4264500.03246
  24079180.98446        42.600          22.300  
 08  1 16 16 47 30.0000000  0 10G01G02G04G05G09G12G14G17G20G30   -0.000369345
  25130492.570 5       201.925 5       157.34646  -2109217.053 5  -1637978.50546
  25130489.04346        40.000          19.000  
  21553237.211 7      2532.175 7      1973.12448  -6032414.887 7  -4658403.42548
  21553230.34448        49.300          37.700  
  20404592.656 7       -57.177 7       -44.55348  -2396796.236 7  -1856877.73248
  20404588.13748        48.500          40.900  
  22264515.773 6      2811.112 6      2190.47847  -6213640.290 6  -4806858.39747
  22264511.05547        43.600          28.100  
  21562999.859 7     -2671.778 7     -2081.90448   1682477.231 7   1296495.91948
  21562994.96148        48.300          34.800  
  21610735.703 6      2034.589 6      1585.39448  -5149639.986 6  -3993550.40448
  21610729.93048        47.000          36.300  
  24956372.016 4     -1390.026 4     -1083.13945   -241886.208 4   -190701.66245
  24956366.54745        37.900          17.800  
  22423187.656 6     -3097.857 6     -2413.91548   2827975.803 6   2181664.03248
  22423182.39148        44.300          34.200  
  23999153.078 5     -1183.799 5      -922.44146   -611286.918 5   -476798.55046
  23999148.85246        41.100          20.400  
  24069568.828 5      3368.811 5      2625.04546  -5552396.539 5  -4303875.70746
  24069564.67646        39.900          20.400  
 08  1 16 16 47 45.0000000  0 10G01G02G04G05G09G12G14G17G20G30   -0.000366560
  25129944.828 5       192.037 5       149.63846  -2112097.611 5  -1640223.06946
  25129940.59846        39.800          19.900  
  21546029.906 7      2525.033 7      1967.55848  -6070290.386 7  -4687916.79348
  21546023.30148        49.000          37.600  
  20404787.789 7       -68.415 7       -53.31048  -2395770.017 7  -1856078.08348
  20404783.63348        48.800          40.800  
  22256505.852 5      2806.025 5      2186.51147  -6255730.658 5  -4839656.06247
  22256501.15247        41.900          28.100  
  21570653.758 7     -2681.530 7     -2089.50348   1722700.186 7   1327838.47148
  21570649.14548        47.800          34.600  
  21604945.258 6      2028.517 6      1580.66448  -5180067.744 6  -4017260.35848
  21604939.84448        47.500          36.400  
  24960366.203 4     -1399.382 4     -1090.42945   -220895.484 4   -174345.22445
  24960360.89845        38.600          17.400  
  22432041.250 6     -3101.682 6     -2416.89448   2874501.039 6   2217917.44448
  22432036.20348        44.300          34.200  
  24002562.383 5     -1194.198 5      -930.54546   -593373.946 5   -462840.38046
  24002557.11346        40.400          20.100  
  24059960.703 6      3366.308 6      2623.09946  -5602891.159 6  -4343222.19346
  24059955.60546        43.500          22.200  
 08  1 16 16 48  0.0000000  0 10G01G02G04G05G09G12G14G17G20G30   -0.000363768
  25129425.555 5       182.084 5       141.88745  -2114828.872 5  -1642351.37645
  25129420.64145        40.000          18.600  
  21538842.719 7      2517.810 7      1961.92948  -6108057.530 7  -4717345.72948
  21538836.10548        49.200          37.400  
  20405015.813 7       -79.716 7       -62.11749  -2394574.282 7  -1855146.33549
  20405011.37149        49.300          41.300  
  22248511.461 6      2800.861 6      2182.48947  -6297743.569 6  -4872393.39947
  22248505.94547        43.800          27.000  
  21578336.320 7     -2691.318 7     -2097.13048   1763069.960 7   1359295.42548
  21578331.55948        48.300          35.500  
  21599172.984 7      2022.375 7      1575.87648  -5210403.363 7  -4040898.50148
  21599167.25448        47.800          36.200  
  24964387.297 4     -1408.780 4     -1097.74945   -199763.784 4   -157878.98745
  24964382.53945        38.800          18.600  
  22440905.641 6     -3105.552 6     -2419.91148   2921084.328 6   2254216.10348
  22440900.34448        45.000          35.200  
  24006000.359 5     -1204.639 5      -938.67846   -575304.356 5   -448760.20346
  24005995.44146        40.300          19.600  
  24050358.961 5      3363.743 5      2621.09946  -5653347.307 5  -4382538.67846
  24050354.63746        40.200          22.200  
 08  1 16 16 48 15.0000000  0 10G01G02G04G05G09G12G14G17G20G30   -0.000360968
  25128932.602 4       172.285 4       134.24445  -2117413.153 4  -1644365.03045
  25128929.03945        38.600          18.300  
  21531676.500 7      2510.722 7      1956.40748  -6145718.354 7  -4746691.83248
  21531669.52048        48.800          36.900  
  20405274.961 7       -90.854 7       -70.79549  -2393211.476 7  -1854084.41149
  20405270.57849        49.400          41.500  
  22240531.578 6      2795.833 6      2178.57247  -6339681.059 6  -4905071.98347
  22240525.38747        42.800          27.000  
  21586045.930 7     -2700.935 7     -2104.62448   1803583.987 7   1390864.78048
  21586040.87948        47.700          35.000  
  21593417.547 7      2016.382 7      1571.20748  -5240649.093 7  -4064466.60148
  21593411.60948        48.500          35.700  
  24968435.273 4     -1418.010 4     -1104.94245   -178493.626 4   -141304.85545
  24968429.06645        37.600          17.400  
  22449780.789 6     -3109.266 6     -2422.80348   2967723.316 6   2290558.15148
  22449775.88748        44.900          35.100  
  24009467.844 4     -1214.917 4      -946.69046   -557080.604 4   -434559.85246
  24009463.20746        38.700          21.300  
  24040763.977 5      3361.311 5      2619.19946  -5703766.977 5  -4421826.66246
  24040759.97346        41.400          21.100  
 08  1 16 16 48 30.0000000  0 10G01G02G04G05G09G12G14G17G20G30   -0.000358160
  25128469.625 4       162.456 4       126.59145  -2119849.988 4  -1646263.90245
  25128465.19545        38.700          18.300  
  21524530.070 7      2503.599 7      1950.85648  -6183272.338 7  -4775954.66648
  21524523.31648        49.300          37.300  
  20405566.336 7      -102.012 7       -79.48949  -2391681.292 7  -1852892.07149
  20405561.52749        48.900          41.700  
  22232565.141 5      2790.760 5      2174.61747  -6381542.455 5  -4937691.23547
  22232559.69147        42.100          27.700  
  21593782.383 6     -2710.542 6     -2112.11148   1844242.122 6   1422546.44348
  21593778.13748        47.300          34.900  
  21587678.828 6      2010.335 6      1566.49548  -5270804.119 6  -4087964.02648
  21587673.36348        47.500          36.000  
  24972509.500 4     -1427.241 4     -1112.13645   -157085.008 4   -124622.81945
  24972503.03545        38.400          17.800  
  22458666.602 6     -3112.984 6     -2425.70048   3014418.073 6   2326943.65548
  22458661.50048        45.000          35.200  
  24012965.305 5     -1225.204 5      -954.70546   -538702.550 5   -420239.28346
  24012960.57846        40.400          21.300  
  24031178.039 6      3358.833 6      2617.28146  -5754149.467 6  -4461085.88546
  24031171.47346        42.600          21.700  
 08  1 16 16 48 45.0000000  0 10G01G02G04G05G09G12G14G17G20G30   -0.000355345
  25128034.164 5       152.559 5       118.87646  -2122138.379 5  -1648047.03946
  25128029.69546        40.300          19.300  
  21517404.180 7      2496.384 7      1945.23548  -6220718.102 7  -4805133.18948
  21517397.37148        48.000          37.400  
  20405889.352 7      -113.245 7       -88.24349  -2389982.613 7  -1851568.42349
  20405885.25049        48.900          41.500  
  22224613.930 6      2785.598 6      2170.59847  -6423326.424 6  -4970250.19947
  22224608.38347        43.700          28.000  
  21601547.602 7     -2720.209 7     -2119.64248   1885045.252 7   1454341.07248
  21601542.99648        47.900          34.600  
  21581958.539 7      2004.203 7      1561.71748  -5300867.160 7  -4111389.77648
  21581952.40648        48.400          36.300  
  24976608.727 4     -1436.530 4     -1119.37245   -135537.061 4   -107832.23745
  24976604.16445        37.700          18.600  
  22467563.039 6     -3116.766 6     -2428.64948   3061169.568 6   2363373.38548
  22467557.88748        45.200          35.000  
  24016492.336 5     -1235.567 5      -962.77946   -520169.048 5   -405797.59646
  24016487.93446        41.200          21.800  
  24021596.211 5      3356.293 5      2615.28946  -5804493.863 5  -4500315.21646
  24021591.75046        39.900          22.300  
 08  1 16 16 49  0.0000000  0 10G01G02G04G05G09G12G14G17G20G30   -0.000352522
  25127627.883 5       142.575 5       111.09846  -2124277.007 5  -1649713.50746
  25127622.70746        40.300          19.600  
  21510299.742 7      2489.078 7      1939.54148  -6258054.267 7  -4834226.29948
  21510292.55148        48.600          37.700  
  20406244.930 7      -124.554 7       -97.05548  -2388114.300 7  -1850112.59448
  20406240.76248        49.200          41.000  
  22216677.781 6      2780.341 6      2166.49947  -6465031.538 6  -5002747.68247
  22216672.26647        42.800          28.400  
  21609339.602 7     -2729.934 7     -2127.22148   1925994.264 7   1486249.38248
  21609335.28548        47.800          35.100  
  21576255.250 7      1997.969 7      1556.85948  -5330836.695 7  -4134742.66548
  21576249.66448        47.800          36.300  
  24980736.398 4     -1445.895 4     -1126.67345   -113848.634 4    -90932.14145
  24980731.15245        38.200          17.800  
  22476470.922 6     -3120.630 6     -2431.65948   3107979.012 6   2399848.26648
  22476465.43848        44.900          35.100  
  24020049.727 5     -1246.008 5      -970.91446   -501478.929 5   -391233.88046
  24020044.53946        41.700          21.100  
  24012025.148 6      3353.637 6      2613.22346  -5854798.422 6  -4539513.56246
  24012020.23446        43.800          23.200  
 08  1 16 16 49 15.0000000  0 10G01G02G04G05G09G12G14G17G20G30   -0.000349689
  25127248.656 5       132.602 5       103.32646  -2126266.037 5  -1651263.40046
  25127244.53546        39.400          19.300  
  21503215.242 7      2481.749 7      1933.83048  -6295280.499 7  -4863233.75048
  21503208.70348        48.700          37.800  
  20406632.656 7      -135.845 7      -105.85448  -2386076.619 7  -1848524.78448
  20406628.24248        49.100          41.200  
  22208756.031 6      2775.074 6      2162.39547  -6506657.645 6  -5035183.59947
  22208750.84047        43.600          27.900  
  21617159.461 7     -2739.610 7     -2134.75948   1967088.406 7   1518270.77148
  21617155.04348        48.300          35.000  
  21570569.828 6      1991.742 6      1552.00748  -5360712.825 6  -4158022.77248
  21570564.27048        47.500          36.200  
  24984889.453 3     -1455.223 3     -1133.94245    -92020.295 3    -73923.01045
  24984884.88345        36.600          18.300  
  22485389.227 6     -3124.462 6     -2434.64548   3154845.943 6   2436367.93848
  22485384.44548        45.400          35.100  
  24023635.305 5     -1256.410 5      -979.02246   -482632.772 5   -376548.54646
  24023630.73046        40.800          21.500  
  24002458.211 5      3350.981 5      2611.16046  -5905063.138 5  -4578680.96146
  24002453.38746        40.300          21.800  
 08  1 16 16 49 30.0000000  0 10G01G02G04G05G09G12G14G17G20G30   -0.000346848
  25126898.461 5       122.588 5        95.52446  -2128104.858 5  -1652696.26146
  25126894.09046        39.400          19.900  
  21496152.359 7      2474.373 7      1928.08248  -6332396.090 7  -4892154.98148
  21496145.51248        49.100          37.600  
  20407053.180 7      -147.183 7      -114.68848  -2383868.872 7  -1846804.46048
  20407048.64548        49.900          40.400  
  22200850.445 6      2769.747 6      2158.24547  -6548203.849 6  -5067557.27147
  22200845.04347        42.800          29.100  
  21625007.500 7     -2749.307 7     -2142.31648   2008328.006 7   1550405.51148
  21625002.84448        47.900          35.400  
  21564902.789 7      1985.459 7      1547.11148  -5390494.712 7  -4181229.43248
  21564897.57448        48.500          36.200  
  24989070.898 4     -1464.583 4     -1141.23345    -70051.555 4    -56804.51645
  24989064.84045        37.400          17.800  
  22494319.125 6     -3128.314 6     -2437.64648   3201770.649 6   2472932.63548
  22494313.57848        45.000          35.300  
  24027251.945 5     -1266.856 5      -987.16146   -463629.927 5   -361741.13846
  24027247.04746        41.000          22.800  
  23992901.758 5      3348.273 5      2609.04246  -5955287.237 5  -4617816.58746
  23992896.13746        42.100          22.200  
 08  1 16 16 49 45.0000000  0 10G01G02G04G05G09G12G14G17G20G30   -0.000343998
  25126576.641 4       112.714 4        87.83046  -2129795.574 4  -1654013.71746
  25126572.25446        38.200          19.600  
  21489110.453 7      2467.140 7      1922.44648  -6369403.185 7  -4920991.67248
  21489103.85548        49.500          37.800  
  20407504.984 7      -158.361 7      -123.39848  -2381493.457 7  -1844953.48848
  20407500.10948        48.800          40.900  
  22192959.234 6      2764.551 6      2154.19547  -6589672.114 6  -5099870.19147
  22192953.97747        43.000          27.800  
  21632882.438 7     -2758.831 7     -2149.73648   2049710.463 7   1582651.55548
  21632877.87148        48.400          35.500  
  21559252.680 7      1979.303 7      1542.31348  -5420184.255 7  -4204364.13248
  21559247.03148        48.800          36.500  
  24993276.781 4     -1473.775 4     -1148.39345    -47944.936 4    -39578.62245
  24993271.74245        39.100          17.400  
  22503259.031 6     -3132.017 6     -2440.53348   3248750.911 6   2509540.62548
  22503253.41048        44.900          35.800  
  24030897.734 5     -1277.145 5      -995.17646   -444472.745 5   -346813.49146
  24030892.79346        40.500          21.800  
  23983352.117 5      3345.679 5      2607.02146  -6005472.422 5  -4656921.90446
  23983347.94946        40.900          22.800  
 08  1 16 16 50  0.0000000  0 10G01G02G04G05G09G12G14G17G20G30   -0.000341141
  25126284.039 5       102.709 5        80.03346  -2131336.212 5  -1655214.20646
  25126278.86746        39.400          19.000  
  21482089.570 7      2459.756 7      1916.69448  -6406299.528 7  -4949742.07748
  21482082.80948        49.300          38.200  
  20407989.297 7      -169.666 7      -132.20748  -2378948.467 7  -1842970.38248
  20407984.82848        49.200          40.600  
  22185083.398 6      2759.211 6      2150.03547  -6631060.284 6  -5132120.72347
  22185078.03147        42.600          28.300  
  21640784.609 7     -2768.466 7     -2157.24648   2091237.454 7   1615010.23748
  21640779.75848        49.000          35.200  
  21553621.102 7      1973.006 7      1537.40748  -5449779.339 7  -4227425.23448
  21553615.02048        48.200          36.600  
  24997510.898 3     -1483.082 3     -1155.64945    -25698.706 3    -22243.89045
  24997504.98445        36.300          17.800  
  22512209.617 6     -3135.835 6     -2443.50748   3295788.438 6   2546193.23548
  22512204.42248        45.400          35.300  
  24034572.648 5     -1287.557 5     -1003.29246   -425159.382 5   -331764.10646
  24034567.71146        40.800          21.800  
  23973809.008 5      3342.957 5      2604.90346  -6055616.773 5  -4695995.45546
  23973804.80546        40.500          19.300  
 08  1 16 16 50 15.0000000  0 10G01G02G04G05G09G12G14G17G20G30   -0.000338274
  25126018.859 5        92.912 5        72.40146  -2132729.887 5  -1656300.22446
  25126013.28146        41.100          19.600  
  21475088.719 7      2452.558 7      1911.08348  -6443087.895 7  -4978408.32848
  21475081.84448        49.500          38.000  
  20408505.406 7      -180.768 7      -140.85948  -2376236.941 7  -1840857.50148
  20408500.74248        49.300          40.900  
  22177222.672 6      2754.055 6      2146.01747  -6672371.105 6  -5164310.97347
  22177217.23447        43.100          28.100  
  21648713.508 7     -2777.869 7     -2164.57248   2132905.491 7   1647478.81548
  21648709.16048        48.500          34.500  
  21548006.664 7      1966.908 7      1532.65648  -5479282.960 7  -4250415.07248
  21548001.06648        47.800          36.000  
  25001770.203 4     -1492.178 4     -1162.73645     -3316.033 4     -4802.85145
  25001764.62945        38.200          16.900  
  22521171.055 6     -3139.439 6     -2446.31548   3342880.021 6   2582887.96048
  22521165.81648        44.700          34.600  
  24038277.508 5     -1297.756 5     -1011.23546   -405693.036 5   -316595.58346
  24038272.05946        40.500          21.700  
  23964274.875 5      3340.409 5      2602.92046  -6105722.915 5  -4735039.25646
  23964269.95746        41.100          23.400  
 08  1 16 16 50 30.0000000  0 10G01G02G04G05G09G12G14G17G20G30   -0.000335403
  25125781.391 5        83.086 5        64.74146  -2133976.174 5  -1657271.33846
  25125776.53946        39.500          20.400  
  21468108.984 7      2445.319 7      1905.44248  -6479767.679 7  -5006989.96248
  21468101.99648        49.500          38.100  
  20409052.914 7      -191.883 7      -149.51948  -2373358.702 7  -1838614.71248
  20409048.43048        49.000          40.900  
  22169375.648 6      2748.861 6      2141.97047  -6713604.023 6  -5196440.53047
  22169370.98047        43.500          29.100  
  21656669.398 7     -2787.265 7     -2171.89548   2174714.465 7   1680057.23248
  21656665.30148        48.400          35.000  
  21542409.875 7      1960.756 7      1527.86348  -5508694.298 7  -4273333.01348
  21542404.43448        48.900          36.600  
  25006055.148 4     -1501.283 4     -1169.83345     19203.213 4     12744.64745
  25006050.08645        39.000          16.300  
  22530142.266 6     -3143.061 6     -2449.13848   3390025.942 6   2619625.03648
  22530137.46148        44.700          34.900  
  24042010.250 5     -1307.971 5     -1019.20046   -386073.465 5   -301307.58946
  24042005.60546        41.100          21.100  
  23954747.078 5      3337.838 5      2600.90846  -6155790.480 5  -4774052.87146
  23954742.64846        41.400          22.200  
 08  1 16 16 50 45.0000000  0 10G01G02G04G05G09G12G14G17G20G30   -0.000332523
  25125573.172 4        73.175 4        57.02045  -2135073.794 4  -1658126.64145
  25125567.67645        38.400          18.300  
  21461150.055 7      2437.976 7      1899.72148  -6516337.312 7  -5035485.77948
  21461143.19148        49.100          38.000  
  20409633.016 7      -203.090 7      -158.25248  -2370312.354 7  -1836240.93548
  20409628.01248        48.900          40.800  
  22161544.508 6      2743.552 6      2137.83347  -6754757.304 6  -5228508.02447
  22161539.71147        42.600          28.300  
  21664652.727 7     -2796.717 7     -2179.25948   2216665.222 7   1712746.12348
  21664648.13348        49.000          34.900  
  21536830.844 7      1954.504 7      1522.98948  -5538011.854 7  -4296177.85448
  21536825.47348        47.900          36.100  
  25010367.789 4     -1510.443 4     -1176.96845     41859.863 4     30399.17145
  25010361.44545        39.100          16.900  
  22539124.383 6     -3146.748 6     -2452.01148   3437227.155 6   2656405.19848
  22539119.41448        44.700          34.900  
  24045772.000 5     -1318.262 5     -1027.21846   -366299.532 5   -285899.31746
  24045768.19546        39.600          21.700  
  23945227.055 5      3335.153 5      2598.82346  -6205817.775 5  -4813035.21246
  23945222.22746        42.200          20.900  
 08  1 16 16 51  0.0000000  0 10G01G02G04G05G09G12G14G17G20G30   -0.000329636
  25125392.172 4        63.307 4        49.33045  -2136023.392 4  -1658866.58645
  25125387.03545        38.700          18.600  
  21454211.602 7      2430.668 7      1894.02748  -6552797.340 7  -5063896.19148
  21454204.73448        49.000          38.300  
  20410244.203 7      -214.243 7      -166.94349  -2367098.705 7  -1833736.79449
  20410239.64549        49.300          41.300  
  22153728.945 6      2738.280 6      2133.72347  -6795831.498 6  -5260513.87647
  22153723.71147        42.600          29.600  
  21672662.750 7     -2806.111 7     -2186.57848   2258756.884 7   1745544.79248
  21672657.83648        48.200          34.500  
  21531269.695 7      1948.281 7      1518.14148  -5567236.072 7  -4318949.96548
  21531264.05148        48.300          36.300  
  25014705.031 4     -1519.552 4     -1184.06545     64653.151 4     48160.14545
  25014699.03145        38.700          18.300  
  22548117.047 6     -3150.388 6     -2454.84748   3484482.972 6   2693227.90148
  22548112.03548        44.500          35.400  
  24049565.492 5     -1328.498 5     -1035.19046   -346372.060 5   -270371.47246
  24049560.16046        42.100          21.800  
