     2.11           OBSERVATION DATA    GPS(GPS)            RINEX VERSION / TYPE
convertToRinex 1.14 convertToRINEX OPR  21-Jan-08 20:41 UTC PGM / RUN BY / DATE 
----------------------------------------------------------- COMMENT             
kylebase                                                    MARKER NAME         
                                                            MARKER NUMBER       
GNSS Observer       Trimble                                 OBSERVER / AGENCY   
4629118867          R8 Model 2          Version 3.50        REC # / TYPE / VERS 
                    TRM_R8_GNSS                             ANT # / TYPE        
 -1641683.7864 -3663550.1144  4940985.9841                  APPROX POSITION XYZ 
        0.0000        0.0000        0.0000                  ANTENNA: DELTA H/E/N
     1     1     0                                          WAVELENGTH FACT L1/2
     8    C1    D1    D2    L1    L2    P2    S1    S2      # / TYPES OF OBSERV 
  2008     1    20    20    10   15.0000000     GPS         TIME OF FIRST OBS   
  2008     1    20    21    26   55.0000000     GPS         TIME OF LAST OBS    
     0                                                      RCV CLOCK OFFS APPL 
    14                                                      LEAP SECONDS        
    14                                                      # OF SATELLITES     
   G02   503   471   370   495   383   383   503   383      PRN / # OF OBS      
   G05   384   368   349   378   352   352   384   352      PRN / # OF OBS      
   G06   921   909   909   921   921   921   921   921      PRN / # OF OBS      
   G10   921   902   911   921   921   921   921   921      PRN / # OF OBS      
   G12   186   150   123   175   127   129   186   129      PRN / # OF OBS      
   G13     2     0     0     1     0     0     2     0      PRN / # OF OBS      
   G15   698   697   697   698   698   698   698   698      PRN / # OF OBS      
   G16   921   919   919   921   921   921   921   921      PRN / # OF OBS      
   G18   494   488   408   494   414   414   494   414      PRN / # OF OBS      
   G21   921   920   920   921   921   921   921   921      PRN / # OF OBS      
   G24   921   903   911   921   921   921   921   921      PRN / # OF OBS      
   G26   728   725   699   727   703   704   728   704      PRN / # OF OBS      
   G29   921   919   919   921   921   921   921   921      PRN / # OF OBS      
   G30   751   732   675   747   681   681   751   681      PRN / # OF OBS      
                                                            END OF HEADER       
 08  1 20 20 10 20.0000000  0 11G02G05G06G10G12G13G16G21G24G29G30   -0.000187691
  23058442.938 5     -3495.55315     -2723.80556   5985735.460 5   4630058.26446
  23058436.73446        40.700          22.500  
  23203875.328 5     -3936.51115     -3067.41256   6847885.795 5   5299365.71046
  23203870.35946        41.300          25.000  
  20772509.516 7      1182.01617       921.05358  -5607401.732 7  -4352181.47848
  20772504.62548        48.800          37.900  
  20725241.648 7      -621.63017      -484.38858  -2280557.040 7  -1766900.81848
  20725236.42648        49.100          36.700  
  24185903.117 5     -4055.68115     -3160.27056   7367567.737 5   5704521.56246
  24185900.21946        41.000          25.200  
  24877847.070 1                                                
                        24.600  
  25021240.719 3      2864.96013      2232.43356  -2328863.061 3  -1740487.21946
  25021235.34046        36.900          19.000  
  23198800.359 5      2600.45715      2026.33156  -4137416.526 5  -3116377.96246
  23198794.85546        42.000          24.400  
  20480636.508 7       733.05117       571.20758  -4669787.891 7  -3617482.58148
  20480632.45348        50.100          39.300  
  20342467.969 7       298.22317       232.38259  -3610839.560 7  -2808023.66649
  20342462.70749        49.100          43.700  
  22172194.453 6     -3356.68716     -2615.60057   4864206.216 6   3774860.43847
  22172190.42247        45.200          32.500  
 08  1 20 20 10 25.0000000  0 10G02G05G06G10G12G16G21G24G29G30   -0.000186708
  23061770.539 5     -3496.419 5     -2724.48246   6003217.555 5   4643680.67246
  23061763.78146        40.900          24.400  
  23207621.148 5     -3937.510 5     -3068.18846   6867573.348 5   5314706.65146
  23207617.08246        40.800          24.800  
  20771387.297 7      1179.827 7       919.34548  -5613300.866 7  -4356778.20348
  20771382.13748        49.900          37.800  
  20725836.625 7                                  -2277430.733 7  -1764464.73948
  20725831.37948        47.800          36.800  
  24189762.922 5     -4056.241 5     -3160.70546   7387848.941 5   5720325.08846
  24189759.88346        41.500          26.000  
  25018516.531 4      2863.490 4      2231.29545  -2343180.512 4  -1751643.69545
  25018511.02745        37.700          17.400  
  23196327.070 5      2599.580 5      2025.64546  -4150414.426 5  -3126506.18646
  23196321.32846        42.100          24.500  
  20479941.188 7       730.807 7       569.46048  -4673441.924 7  -3620329.87948
  20479937.73848        50.100          39.700  
  20342186.836 7       295.741 7       230.44849  -3612318.267 7  -2809175.90449
  20342182.17649        49.200          43.900  
  22175390.305 6     -3358.785 6     -2617.23447   4881000.140 6   3787946.60847
  22175386.34447        44.200          32.100  
 08  1 20 20 10 30.0000000  0 10G02G05G06G10G12G16G21G24G29G30   -0.000185724
  23065097.547 5     -3497.390 5     -2725.23946   6020704.507 5   4657306.86846
  23065091.32446        42.300          24.900  
  23211369.023 5     -3938.604 5     -3069.04046   6887266.365 5   5330051.85046
  23211364.49246        41.300          24.300  
  20770266.820 7      1177.524 7       917.55348  -5619188.488 7  -4361365.96648
  20770261.87948        49.800          37.800  
  20726434.836 7      -629.009 7      -490.13848  -2274285.688 7  -1762014.05048
  20726429.48048        47.800          36.500  
  24193622.727 5     -4056.902 5     -3161.22046   7408133.453 5   5736131.18846
  24193619.98046        40.900          23.000  
  25015792.750 3      2861.882 3      2230.03745  -2357489.923 3  -1762793.88045
  25015788.08245        37.200          17.400  
  23193854.836 5      2598.592 5      2024.87946  -4163407.385 5  -3136630.58246
  23193848.66446        41.900          25.200  
  20479247.875 7       728.448 7       567.62248  -4677084.162 7  -3623167.99048
  20479244.23448        49.900          39.700  
  20341907.484 7       293.149 7       228.42849  -3613784.011 7  -2810318.04549
  20341902.96949        48.900          43.900  
  22178588.586 6     -3360.986 6     -2618.94847   4897805.068 6   3801041.35147
  22178584.58247        44.400          32.300  
 08  1 20 20 10 35.0000000  0 10G02G05G06G10G12G16G21G24G29G30   -0.000184738
  23068426.367 5     -3498.425 5     -2726.04546   6038196.634 5   4670937.09446
  23068419.78146        42.200          24.700  
  23215117.641 5     -3939.766 5     -3069.94946   6906965.193 5   5345401.59446
  23215113.02746        40.800          25.200  
  20769148.742 7      1175.139 7       915.69148  -5625064.183 7  -4365944.42348
  20769143.63348        50.200          37.700  
  20727036.984 7      -632.819 7      -493.10648  -2271121.593 7  -1759548.52048
  20727031.76648        48.800          36.300  
  24197483.305 5     -4057.640 5     -3161.79546   7428421.651 5   5751940.16546
  24197481.21146        40.000          26.000  
  25013071.727 4      2860.222 4      2228.74645  -2371791.035 4  -1773937.60745
  25013066.94945        38.000          17.800  
  23191383.469 5      2597.524 5      2024.04446  -4176395.005 5  -3146750.80046
  23191376.86346        41.100          24.700  
  20478557.492 7       726.025 7       565.73348  -4680714.286 7  -3625996.65348
  20478553.79348        49.900          39.800  
  20341631.555 7       290.483 7       226.35149  -3615236.425 7  -2811449.80149
  20341626.34449        49.800          43.900  
  22181788.211 6     -3363.258 6     -2620.71947   4914621.358 6   3814144.94747
  22181784.49647        43.900          32.700  
 08  1 20 20 10 40.0000000  0 10G02G05G06G10G12G16G21G24G29G30   -0.000183754
  23071755.531 6     -3499.409 6     -2726.81447   6055693.679 6   4684571.16647
  23071749.23447        42.600          26.800  
  23218867.227 5     -3940.861 5     -3070.80246   6926669.498 5   5360755.60246
  23218862.74646        40.500          24.800  
  20768032.859 7      1172.825 7       913.89048  -5630928.306 7  -4370513.87248
  20768027.50448        49.800          37.700  
  20727642.984 6      -636.567 6      -496.02548  -2267938.759 6  -1757068.39348
  20727637.99648        47.000          36.500  
  24201345.094 5     -4058.297 5     -3162.31046   7448713.137 5   5767751.71546
  24201342.05546        39.700          24.200  
  25010351.250 4      2858.620 4      2227.49645  -2386084.133 4  -1785075.08745
  25010347.06345        37.700          17.800  
  23188912.391 5      2596.540 5      2023.27646  -4189377.706 5  -3156867.17946
  23188906.75846        41.700          25.400  
  20477868.789 7       723.670 7       563.90048  -4684332.638 7  -3628816.15348
  20477865.07848        50.700          39.900  
  20341357.414 7       287.883 7       224.32349  -3616675.838 7  -2812571.41749
  20341352.76249        48.600          43.800  
  22184990.617 6     -3365.452 6     -2622.43047   4931448.616 6   3827257.09647
  22184987.09447        43.500          32.300  
 08  1 20 20 10 45.0000000  0 10G02G05G06G10G12G16G21G24G29G30   -0.000182768
  23075086.398 5     -3500.352 5     -2727.54446   6073195.440 5   4698208.88946
  23075080.00446        42.400          25.900  
  23222617.461 5     -3941.917 5     -3071.62146   6946379.086 5   5376113.70546
  23222613.07446        40.300          22.600  
  20766918.867 7      1170.558 7       912.12248  -5636781.097 7  -4375074.48448
  20766914.00048        50.300          37.800  
  20728251.703 7      -640.276 7      -498.91648  -2264737.381 7  -1754573.81348
  20728246.62948        47.600          36.200  
  24205206.445 5     -4058.919 5     -3162.79246   7469007.732 5   5783565.67546
  24205203.57446        40.500          24.300  
  25007632.578 3      2857.060 3      2226.27745  -2400369.433 3  -1796206.47045
  25007628.39845        37.100          16.900  
  23186442.898 5      2595.576 5      2022.52646  -4202355.588 5  -3166979.81046
  23186437.35246        41.300          25.800  
  20477182.422 7       721.344 7       562.08548  -4687939.359 7  -3631626.57848
  20477178.90248        50.600          39.900  
  20341086.063 7       285.321 7       222.32949  -3618102.444 7  -2813683.06349
  20341081.12949        48.700          43.700  
  22188194.281 6     -3367.623 6     -2624.11947   4948286.729 6   3840377.69247
  22188190.93847        44.100          31.600  
 08  1 20 20 10 50.0000000  0 10G02G05G06G10G12G16G21G24G29G30   -0.000181782
  23078417.336 6     -3501.288 6     -2728.27746   6090701.879 6   4711850.27246
  23078411.21946        43.000          23.900  
  23226369.688 5     -3942.961 5     -3072.43946   6966093.893 5   5391475.90246
  23226364.78146        40.500          22.500  
  20765807.469 7      1168.298 7       910.36348  -5642622.585 7  -4379626.29848
  20765802.20348        50.700          38.000  
  20728864.203 6      -643.964 6      -501.78948  -2261517.563 6  -1752064.86748
  20728859.50848        47.300          36.400  
  24209069.336 5     -4059.525 5     -3163.26446   7489305.355 5   5799381.99546
  24209066.35546        40.300          22.600  
  25004916.148 4      2855.528 4      2225.08645  -2414647.073 4  -1807331.90145
  25004911.64845        37.600          17.400  
  23183974.711 5      2594.619 5      2021.77946  -4215328.681 5  -3177088.70346
  23183968.50046        41.900          23.900  
  20476498.336 7       719.035 7       560.28848  -4691534.532 7  -3634428.01748
  20476494.29348        50.800          40.000  
  20340817.102 7       282.769 7       220.34049  -3619516.288 7  -2814784.76449
  20340812.19149        49.000          44.000  
  22191400.578 6     -3369.763 6     -2625.78847   4965135.544 6   3853506.63147
  22191397.08247        44.700          31.900  
 08  1 20 20 10 55.0000000  0 10G02G05G06G10G12G16G21G24G29G30   -0.000180794
  23081749.406 5     -3502.137 5     -2728.93746   6108212.565 5   4725494.95546
  23081743.35546        42.400          25.700  
  23230121.617 5     -3943.918 5     -3073.18246   6985813.484 5   5406841.81346
  23230117.47746        40.300          22.900  
  20764697.766 7      1166.100 7       908.64948  -5648453.083 7  -4384169.54348
  20764692.65648        50.000          37.900  
  20729480.492 7      -647.579 7      -504.60848  -2258279.669 7  -1749541.82548
  20729475.08248        47.900          36.100  
  24212932.680 5     -4060.052 5     -3163.67346   7509605.617 5   5815200.36146
  24212929.21946        39.900          22.900  
  25002200.594 3      2854.031 3      2223.91845  -2428917.229 3  -1818451.49045
  25002196.18445        37.200          16.900  
  23181505.969 5      2593.749 5      2021.10346  -4228297.427 5  -3187194.21746
  23181500.34446        41.100          24.800  
  20475816.445 7       716.803 7       558.54848  -4695118.545 7  -3637220.75548
  20475812.80948        50.500          40.100  
  20340550.133 7       280.298 7       218.41349  -3620917.778 7  -2815876.83049
  20340545.19949        49.600          43.900  
  22194608.695 6     -3371.831 6     -2627.40147   4981994.697 6   3866643.63447
  22194605.20747        44.300          31.100  
 08  1 20 20 11  0.0000000  0 10G02G05G06G10G12G16G21G24G29G30   -0.000179808
  23085083.039 6     -3503.093 6     -2729.68147   6125728.031 6   4739143.36247
  23085077.23447        43.200          26.800  
  23233875.758 5     -3944.980 5     -3074.01346   7005538.387 5   5422211.87746
  23233871.23446        41.000          23.000  
  20763590.375 7      1163.799 7       906.85848  -5654272.078 7  -4388703.83348
  20763585.61348        49.100          38.000  
  20730100.195 6      -651.291 6      -507.49948  -2255023.216 6  -1747004.32948
  20730095.00448        47.300          36.200  
  24216796.688 5     -4060.686 5     -3164.16946   7529909.047 5   5831021.20846
  24216793.15646        40.600          22.800  
  24999486.656 4      2852.441 4      2222.68245  -2443179.432 4  -1829564.89845
  24999482.00445        37.600          16.300  
  23179039.961 5      2592.773 5      2020.33946  -4241261.291 5  -3197295.91446
  23179033.67246        40.800          24.100  
  20475136.914 7       714.466 7       556.72748  -4698690.875 7  -3640004.38848
  20475133.31348        51.000          40.400  
  20340285.844 7       277.718 7       216.40349  -3622306.370 7  -2816958.84649
  20340281.33249        48.600          44.000  
  22197818.813 6     -3374.000 6     -2629.09147   4998864.699 6   3879789.08847
  22197815.58247        44.100          31.200  
 08  1 20 20 11  5.0000000  0 10G02G05G06G10G12G16G21G24G29G30   -0.000178820
  23088416.672 6     -3504.013 6     -2730.39746   6143248.099 6   4752795.34646
  23088411.10246        42.800          24.400  
  23237629.602 5     -3946.006 5     -3074.80746   7025268.419 5   5437585.91446
  23237625.59846        41.600          23.900  
  20762485.219 7      1161.534 7       905.09148  -5660079.748 7  -4393229.28648
  20762480.27348        49.600          38.000  
  20730723.344 7      -654.976 7      -510.37148  -2251748.338 7  -1744452.47648
  20730717.93448        48.500          36.400  
  24220660.242 5     -4061.277 5     -3164.62946   7550215.431 5   5846844.35446
  24220657.09846        40.100          24.700  
  24996774.719 4      2850.867 4      2221.45345  -2457433.766 4  -1840672.16145
  24996770.28145        37.500          17.400  
  23176573.992 5      2591.827 5      2019.60746  -4254220.428 5  -3207393.95146
  23176568.10946        41.400          25.200  
  20474458.922 7       712.161 7       554.93148  -4702251.679 7  -3642779.04248
  20474455.24248        50.500          40.400  
  20340023.922 7       275.163 7       214.41449  -3623682.186 7  -2818030.91449
  20340019.52749        49.100          43.900  
  22201031.531 6     -3376.127 6     -2630.74647   5015745.335 6   3892942.81847
  22201028.05547        43.200          31.700  
 08  1 20 20 11 10.0000000  0 10G02G05G06G10G12G16G21G24G29G30   -0.000177832
  23091751.867 6     -3505.033 6     -2731.19447   6160773.262 6   4766451.31447
  23091746.36747        43.200          26.800  
  23241385.789 5     -3947.155 5     -3075.70346   7045004.194 5   5452964.43146
  23241381.89846        41.700          26.200  
  20761382.305 7      1159.162 7       903.24348  -5665875.558 7  -4397745.50148
  20761377.77048        49.800          38.000  
  20731350.289 7      -658.767 7      -513.32648  -2248454.505 7  -1741885.84848
  20731344.82048        50.000          36.200  
  24224525.188 5     -4061.980 5     -3165.17546   7570525.333 5   5862670.23146
  24224522.26646        40.200          22.900  
  24994063.461 4      2849.195 4      2220.15645  -2471679.742 4  -1851772.94345
  24994058.55145        37.500          17.400  
  23174108.547 5      2590.773 5      2018.78046  -4267174.291 5  -3217487.85246
  23174102.69946        41.800          24.900  
  20473783.625 7       709.744 7       553.04648  -4705800.397 7  -3645544.27148
  20473779.59048        50.700          40.500  
  20339765.133 7       272.500 7       212.33849  -3625044.688 7  -2819092.60549
  20339760.55949        49.100          44.000  
  22204245.781 6     -3378.372 6     -2632.49847   5032637.194 6   3906105.31047
  22204242.17647        43.400          31.900  
 08  1 20 20 11 15.0000000  0 10G02G05G06G10G12G16G21G24G29G30   -0.000176844
  23095088.383 6     -3505.995 6     -2731.94247   6178303.234 6   4780111.02647
  23095081.86747        43.800          27.300  
  23245141.406 5     -3948.210 5     -3076.52946   7064745.246 5   5468347.07646
  23245138.25846        41.400          22.800  
  20760281.688 7      1156.842 7       901.43548  -5671659.766 7  -4402252.67848
  20760277.25048        50.700          38.000  
  20731980.641 7      -662.507 7      -516.23948  -2245141.972 7  -1739304.65448
  20731975.51248        49.700          36.400  
  24228390.563 5     -4062.615 5     -3165.67347   7590838.408 5   5878498.59547
  24228387.94947        40.200          26.400  
  24991354.828 4      2847.598 4      2218.90345  -2485917.733 4  -1862867.45845
  24991349.28145        38.600          17.400  
  23171644.883 6      2589.786 6      2018.01546  -4280123.222 6  -3227577.92646
  23171638.57846        42.800          25.600  
  20473110.781 7       707.394 7       551.21648  -4709337.366 7  -3648300.35248
  20473107.16048        50.800          40.600  
  20339508.117 7       269.904 7       210.31549  -3626394.209 7  -2820144.17949
  20339503.55149        49.100          44.000  
  22207462.031 6     -3380.546 6     -2634.19347   5049539.926 6   3919276.27247
  22207458.60547        44.400          31.900  
 08  1 20 20 11 20.0000000  0 10G02G05G06G10G12G16G21G24G29G30   -0.000175856
  23098425.523 6     -3506.893 6     -2732.64247   6195837.698 6   4793774.23647
  23098418.24647        43.400          26.900  
  23248898.930 5     -3949.218 5     -3077.31146   7084491.337 5   5483733.62946
  23248895.77746        41.600          22.900  
  20759183.031 7      1154.602 7       899.68948  -5677432.775 7  -4406751.12348
  20759178.59448        50.000          38.000  
  20732614.375 7      -666.184 7      -519.10648  -2241811.050 7  -1736709.12648
  20732609.47348        49.900          36.400  
  24232257.391 5     -4063.187 5     -3166.11946   7611154.344 5   5894329.18946
  24232253.79746        39.500          24.400  
  24988646.594 4      2846.040 4      2217.69745  -2500147.931 4  -1873955.94045
  24988641.27045        38.900          17.800  
  23169181.570 5      2588.858 5      2017.29047  -4293067.510 5  -3237664.37647
  23169175.48847        42.200          26.800  
  20472439.953 7       705.108 7       549.43548  -4712862.906 7  -3651047.52848
  20472436.47348        51.200          40.700  
  20339253.609 7       267.367 7       208.33749  -3627731.043 7  -2821185.86449
  20339249.06349        49.300          44.000  
  22210680.258 6     -3382.661 6     -2635.83947   5066453.230 6   3932455.46947
  22210676.93047        44.300          31.400  
 08  1 20 20 11 25.0000000  0 10G02G05G06G10G12G16G21G24G29G30   -0.000174866
  23101763.164 6     -3507.850 6     -2733.39047   6213376.947 6   4807441.18547
  23101755.85547        43.400          27.100  
  23252657.883 5     -3950.294 5     -3078.15246   7104242.808 5   5499124.38846
  23252654.20746        41.600          23.400  
  20758086.438 7      1152.265 7       897.87048  -5683194.103 7  -4411240.47148
  20758081.83648        48.300          37.700  
  20733251.539 7      -669.917 7      -522.01448  -2238461.465 7  -1734099.05448
  20733246.91448        48.700          36.100  
  24236123.828 5     -4063.832 5     -3166.62146   7631473.501 5   5910162.29246
  24236120.25846        40.200          23.500  
  24985940.359 4      2844.410 4      2216.42245  -2514369.981 4  -1885038.04945
  24985934.68445        39.100          18.300  
  23166718.828 5      2587.857 5      2016.51146  -4306006.795 5  -3247746.93346
  23166713.10546        41.400          25.700  
  20471771.375 7       702.748 7       547.59548  -4716376.645 7  -3653785.50448
  20471767.19548        50.800          40.600  
  20339001.883 7       264.759 7       206.30649  -3629054.839 7  -2822217.39549
  20338997.00849        48.500          44.000  
  22213901.258 6     -3384.838 6     -2637.53647   5083377.422 6   3945643.14747
  22213897.43047        44.100          31.000  
 08  1 20 20 11 30.0000000  0 10G02G05G06G10G12G16G21G24G29G30   -0.000173876
  23105101.008 6     -3508.868 6     -2734.17946   6230921.285 6   4821112.08246
  23105094.38746        43.700          26.200  
  23256417.852 5     -3951.403 5     -3079.01546   7123999.821 5   5514519.46446
  23256414.13346        41.800          25.200  
  20756992.781 7      1149.896 7       896.02248  -5688943.584 7  -4415720.58048
  20756988.25448        49.500          38.000  
  20733892.445 7      -673.690 7      -524.95448  -2235093.015 7  -1731474.28248
  20733888.20748        49.600          36.400  
  24239991.164 5     -4064.517 5     -3167.15146   7651796.085 5   5925998.04846
  24239987.34446        40.400          21.800  
  24983235.430 5      2842.726 5      2215.11346  -2528583.609 5  -1896113.61146
  24983230.11746        39.400          19.600  
  23164257.781 6      2586.803 6      2015.68846  -4318940.809 6  -3257825.37546
  23164251.74246        42.600          25.800  
  20471104.859 7       700.344 7       545.72348  -4719878.365 7  -3656514.12148
  20471100.58648        51.200          40.800  
  20338752.344 7       262.111 7       204.24249  -3630365.394 7  -2823238.60549
  20338747.75849        49.200          44.100  
  22217124.211 6     -3387.063 6     -2639.26847   5100312.737 6   3958839.48847
  22217120.18847        45.100          31.600  
 08  1 20 20 11 35.0000000  0 10G02G05G06G10G12G16G21G24G29G30   -0.000172884
  23108440.594 6     -3509.831 6     -2734.93447   6248470.438 6   4834786.75147
  23108433.96547        43.100          26.800  
  23260178.164 5     -3952.457 5     -3079.83546   7143762.106 5   5529918.63846
  23260174.59046        42.200          23.200  
  20755900.727 7      1147.575 7       894.21448  -5694681.457 7  -4420191.65148
  20755895.92648        49.700          38.200  
  20734537.164 7      -677.411 7      -527.85148  -2231705.960 7  -1728835.02648
  20734532.66848        47.900          36.400  
  24243858.766 5     -4065.148 5     -3167.64646   7672121.826 5   5941836.27646
  24243855.53146        39.200          24.000  
  24980532.414 5      2841.112 5      2213.85446  -2542789.170 5  -1907182.88346
  24980526.40246        39.300          20.400  
  23161797.078 5      2585.804 5      2014.91346  -4331869.827 5  -3267899.94146
  23161791.51246        42.000          26.100  
  20470440.836 7       697.994 7       543.89148  -4723368.336 7  -3659233.57448
  20470436.78148        51.000          40.900  
  20338505.578 7       259.499 7       202.20749  -3631662.889 7  -2824249.64049
  20338501.07449        49.200          44.000  
  22220348.422 6     -3389.236 6     -2640.96347   5117258.919 6   3972044.30547
  22220344.67647        43.900          31.600  
 08  1 20 20 11 40.0000000  0 10G02G05G06G10G12G16G21G24G29G30   -0.000171894
  23111780.883 6     -3510.827 6     -2735.70847   6266024.573 6   4848465.29047
  23111774.03147        43.400          27.200  
  23263939.977 6     -3953.570 6     -3080.70346   7163529.954 6   5545322.15246
  23263936.34046        42.500          24.700  
  20754810.828 7      1145.211 7       892.37248  -5700407.513 7  -4424653.51448
  20754806.88348        48.200          38.400  
  20735185.320 7      -681.199 7      -530.80548  -2228299.967 7  -1726181.00348
  20735180.84448        48.600          36.500  
  24247727.711 5     -4065.817 5     -3168.16646   7692450.910 5   5957677.10646
  24247723.75846        39.400          22.000  
  24977830.281 4      2839.429 4      2212.54146  -2556986.316 4  -1918245.58646
  24977825.16846        38.500          19.900  
  23159338.195 6      2584.759 6      2014.09546  -4344793.621 6  -3277970.41646
  23159332.58646        42.700          26.200  
  20469778.813 7       695.588 7       542.01648  -4726846.274 7  -3661943.65448
  20469775.00848        50.700          40.600  
  20338261.180 7       256.846 7       200.14049  -3632947.121 7  -2825250.34049
  20338256.47749        48.500          43.900  
  22223575.320 6     -3391.442 6     -2642.68047   5134216.127 6   3985257.70647
  22223571.47747        43.200          31.800  
 08  1 20 20 11 45.0000000  0 10G02G05G06G10G12G16G21G24G29G30   -0.000170902
  23115122.000 6     -3511.795 6     -2736.46547   6283583.550 6   4862147.61547
  23115115.37147        42.900          26.400  
  23267703.047 5     -3954.641 5     -3081.53946   7183303.157 5   5560729.84646
  23267699.19146        41.300          24.800  
  20753723.766 7      1142.861 7       890.54348  -5706121.819 7  -4429106.22748
  20753718.93048        49.500          38.000  
  20735837.156 7      -684.924 7      -533.70648  -2224875.347 7  -1723512.47448
  20735832.27348        49.300          36.200  
  24251597.008 5     -4066.448 5     -3168.66346   7712783.151 5   5973520.41946
  24251593.05546        39.700          24.300  
  24975130.602 5      2837.801 5      2211.26846  -2571175.319 5  -1929301.92646
  24975124.93846        39.600          19.000  
  23156879.859 5      2583.753 5      2013.31346  -4357712.385 5  -3288036.98346
  23156873.98446        41.800          26.200  
  20469119.227 7       693.229 7       540.17948  -4730312.419 7  -3664644.54848
  20469115.45348        51.300          40.800  
  20338019.203 7       254.227 7       198.09949  -3634218.256 7  -2826240.83349
  20338014.55149        49.500          44.000  
  22226804.211 6     -3393.612 6     -2644.37347   5151184.186 6   3998479.57247
  22226800.54347        44.100          31.400  
 08  1 20 20 11 50.0000000  0 10G02G05G06G10G12G16G21G24G29G30   -0.000169910
  23118464.797 6     -3512.710 6     -2737.17547   6301147.102 6   4875833.49147
  23118457.94547        43.700          27.300  
  23271466.867 5     -3955.638 5     -3082.31346   7203081.346 5   5576141.41046
  23271462.57446        42.100          26.000  
  20752638.625 7      1140.583 7       888.76548  -5711824.734 7  -4433550.05248
  20752633.65648        49.100          37.900  
  20736492.469 6      -688.624 6      -536.59148  -2221432.227 6  -1720829.52148
  20736487.50848        47.500          36.600  
  24255466.609 5     -4067.019 5     -3169.09946   7733118.246 5   5989365.91446
  24255462.82446        39.900          22.800  
  24972431.805 5      2836.209 5      2210.03346  -2585356.365 5  -1940352.09046
  24972426.24246        39.900          19.300  
  23154422.289 5      2582.794 5      2012.56647  -4370626.354 5  -3298099.81547
  23154416.53947        42.400          26.800  
  20468462.086 7       690.915 7       538.37448  -4733766.992 7  -3667336.41948
  20468457.97348        51.600          40.800  
  20337779.781 7       251.658 7       196.09749  -3635476.546 7  -2827221.31949
  20337775.18849        48.300          44.000  
  22230035.500 6     -3395.730 6     -2646.02047   5168162.834 6   4011709.67247
  22230031.86747        44.100          30.400  
 08  1 20 20 11 55.0000000  0 10G02G05G06G10G12G16G21G24G29G30   -0.000168917
  23121807.211 6     -3513.564 6     -2737.83947   6318714.923 6   4889522.68647
  23121801.17647        42.800          26.700  
  23275230.891 5     -3956.590 5     -3083.05546   7222864.294 5   5591556.68846
  23275227.32446        42.000          24.500  
  20751555.289 7      1138.364 7       887.03848  -5717516.556 7  -4437985.24148
  20751550.91048        50.100          38.000  
  20737151.492 7      -692.258 7      -539.42148  -2217970.936 7  -1718132.41848
  20737146.38348        49.700          36.600  
  24259337.039 5     -4067.531 5     -3169.50346   7753455.903 5   6005213.42946
  24259332.56346        39.300          23.500  
  24969734.633 5      2834.683 5      2208.84345  -2599529.779 5  -1951396.30545
  24969729.85245        40.200          18.300  
  23151965.664 6      2581.906 6      2011.87346  -4383535.881 6  -3308159.18246
  23151959.90246        42.700          25.500  
  20467806.641 7       688.663 7       536.62248  -4737210.308 7  -3670019.52848
  20467802.77348        50.500          40.600  
  20337542.734 7       249.157 7       194.14849  -3636722.333 7  -2828192.06149
  20337538.02749        49.700          43.700  
  22233268.328 6     -3397.777 6     -2647.61847   5185151.718 6   4024947.76147
  22233264.36747        44.200          30.400  
 08  1 20 20 12  0.0000000  0 10G02G05G06G10G12G16G21G24G29G30   -0.000167925
  23125150.867 5     -3514.449 5     -2738.52847   6336287.169 5   4903215.32647
  23125145.28947        42.100          26.900  
  23278996.594 5     -3957.567 5     -3083.81946   7242652.131 5   5606975.78446
  23278992.27746        41.400          22.800  
  20750474.711 7      1136.114 7       885.28448  -5723197.126 7  -4442411.66148
  20750469.60948        50.200          38.000  
  20737813.555 7      -695.902 7      -542.26148  -2214491.427 7  -1715421.11548
  20737808.79748        48.300          36.600  
  24263206.977 5     -4068.068 5     -3169.92246   7773796.243 5   6021063.04146
  24263203.12946        39.500          24.400  
  24967038.891 5      2833.121 5      2207.63245  -2613695.382 5  -1962434.46545
  24967033.92245        40.500          18.300  
  23149510.133 6      2580.974 6      2011.14547  -4396440.752 6  -3318214.90847
  23149504.15247        42.700          26.700  
  20467153.594 7       686.388 7       534.84748  -4740642.246 7  -3672693.76448
  20467149.35548        50.400          40.600  
  20337308.188 7       246.617 7       192.16949  -3637955.418 7  -2829152.90749
  20337303.64149        49.100          43.700  
  22236503.352 6     -3399.853 6     -2649.23447   5202150.981 6   4038193.93047
  22236498.71947        44.200          30.400  
 08  1 20 20 12  5.0000000  0 10G02G05G06G10G12G16G21G24G29G30   -0.000166931
  23128495.570 5     -3515.393 5     -2739.26647   6353864.136 5   4916911.65547
  23128490.01247        42.300          26.800  
  23282763.547 5     -3958.607 5     -3084.62646   7262445.168 5   5622398.91646
  23282759.39846        41.400          25.400  
  20749395.766 7      1133.776 7       883.46248  -5728866.007 7  -4446828.97048
  20749391.16048        49.300          38.100  
  20738479.227 7      -699.611 7      -545.15248  -2210993.374 7  -1712695.35748
  20738474.05148        50.300          36.600  
  24267079.156 5     -4068.680 5     -3170.39746   7794139.644 5   6036915.02446
  24267074.31346        39.400          22.800  
  24964344.750 5      2831.481 5      2206.34546  -2627852.787 5  -1973466.19046
  24964340.02746        40.900          19.600  
  23147055.609 6      2579.974 6      2010.37046  -4409340.623 6  -3328266.76146
  23147049.78146        42.600          25.400  
  20466502.906 7       684.032 7       533.01148  -4744062.405 7  -3675358.82048
  20466499.16048        51.000          40.500  
  20337075.703 7       244.014 7       190.14049  -3639175.486 7  -2830103.60649
  20337071.31349        50.100          43.700  
  22239739.742 6     -3402.005 6     -2650.91447   5219161.009 6   4051448.49747
  22239735.93847        44.200          29.800  
 08  1 20 20 12 10.0000000  0 10G02G05G06G10G12G16G21G24G29G30   -0.000165937
  23131841.242 5     -3516.302 5     -2739.97547   6371445.647 5   4930611.52847
  23131835.86347        42.300          27.000  
  23286530.594 5     -3959.601 5     -3085.40347   7282243.171 5   5637825.93347
  23286527.04747        41.000          26.400  
  20748319.289 7      1131.489 7       881.67948  -5734523.450 7  -4451237.36648
  20748314.61748        50.000          37.800  
  20739148.258 7      -703.305 7      -548.02948  -2207476.851 7  -1709955.21448
  20739143.39848        48.100          36.900  
  24270950.242 4     -4069.247 4     -3170.84446   7814485.877 4   6052769.24246
  24270945.66446        38.700          22.500  
  24961652.063 5      2829.887 5      2205.10946  -2642002.225 5  -1984491.73446
  24961647.43046        40.200          19.000  
  23144601.211 5      2579.025 5      2009.62847  -4422235.746 5  -3338314.90047
  23144595.77747        42.100          27.100  
  20465854.289 7       681.727 7       531.21648  -4747471.038 7  -3678014.89948
  20465850.06648        50.300          40.400  
  20336846.313 7       241.446 7       188.14049  -3640382.717 7  -2831044.30749
  20336841.69949        48.800          43.600  
  22242978.672 6     -3404.110 6     -2652.55247   5236181.557 6   4064711.25947
  22242974.90647        43.600          30.600  
 08  1 20 20 12 15.0000000  0 10G02G05G06G10G12G16G21G24G29G30   -0.000164944
  23135187.930 6     -3517.329 6     -2740.77547   6389032.292 6   4944315.40347
  23135182.65647        43.000          27.200  
  23290299.453 5     -3960.723 5     -3086.27546   7302046.788 5   5653257.30846
  23290295.03546        41.300          24.200  
  20747244.977 7      1129.076 7       879.80048  -5740168.832 7  -4455636.36848
  20747240.32448        50.600          38.100  
  20739821.258 7      -707.115 7      -550.99948  -2203941.277 7  -1707200.22048
  20739816.34048        49.600          36.800  
  24274822.719 4     -4069.941 4     -3171.38246   7834835.584 4   6068626.15046
  24274818.47346        38.500          22.500  
  24958961.000 5      2828.183 5      2203.77746  -2656143.142 5  -1995510.61846
  24958956.27046        40.400          19.000  
  23142148.148 5      2577.939 5      2008.78346  -4435125.439 5  -3348358.81346
  23142142.85546        41.600          25.200  
  20465207.977 7       679.292 7       529.31948  -4750867.496 7  -3680661.49348
  20465203.84448        50.500          40.400  
  20336619.133 7       238.758 7       186.04649  -3641576.507 7  -2831974.53949
  20336614.33649        49.400          43.500  
  22246219.711 6     -3406.335 6     -2654.28647   5253213.233 6   4077982.69047
  22246215.90647        44.100          30.700  
 08  1 20 20 12 20.0000000  0 10G02G05G06G10G12G16G21G24G29G30   -0.000163950
  23138535.531 6     -3518.175 6     -2741.43547   6406623.169 6   4958022.57847
  23138529.62147        42.600          26.700  
  23294068.313 5     -3961.661 5     -3087.00846   7321855.092 5   5668692.34946
  23294064.50446        41.500          24.800  
  20746172.617 7      1126.838 7       878.05548  -5745803.022 7  -4460026.64648
  20746167.95748        49.500          38.000  
  20740497.461 7      -710.731 7      -553.81648  -2200387.620 7  -1704431.13848
  20740492.32848        49.500          36.700  
  24278695.984 4     -4070.447 4     -3171.77246   7855187.816 4   6084485.00946
  24278691.18846        38.700          22.500  
  24956272.430 5      2826.634 5      2202.57246  -2670276.311 5  -2006523.47746
  24956266.62546        40.600          19.000  
  23139696.422 5      2577.033 5      2008.07946  -4448010.604 5  -3358399.20746
  23139690.66446        41.800          25.700  
  20464563.844 7       677.042 7       527.56548  -4754252.704 7  -3683299.31748
  20464559.75848        51.300          40.500  
  20336394.234 7       236.243 7       184.08649  -3642757.721 7  -2832894.96849
  20336389.66449        49.100          43.500  
  22249462.906 6     -3408.381 6     -2655.87947   5270255.137 6   4091262.08647
  22249458.58247        44.000          31.100  
 08  1 20 20 12 25.0000000  0 10G02G05G06G10G12G16G21G24G29G30   -0.000162954
  23141883.492 5     -3519.201 5     -2742.23347   6424219.174 5   4971733.74247
  23141878.23447        41.900          26.500  
  23297839.398 5     -3962.772 5     -3087.87446   7341668.950 5   5684131.72046
  23297834.88746        42.300          24.900  
  20745102.898 7      1124.420 7       876.17148  -5751425.121 7  -4464407.49848
  20745098.30548        49.200          38.000  
  20741177.289 7      -714.522 7      -556.77048  -2196815.010 7  -1701647.28948
  20741172.22348        49.400          36.800  
  24282569.750 4     -4071.128 4     -3172.30646   7875543.455 4   6100346.53846
  24282564.88346        39.000          23.800  
  24953584.078 5      2824.901 5      2201.21946  -2684400.813 5  -2017529.57046
  24953578.95346        40.200          19.900  
  23137245.359 5      2575.948 5      2007.23046  -4460890.341 5  -3368435.35846
  23137239.58246        41.200          25.600  
  20463921.945 7       674.613 7       525.67248  -4757625.769 7  -3685927.68048
  20463917.95748        50.700          40.400  
  20336171.930 7       233.561 7       181.99549  -3643925.523 7  -2833804.94149
  20336167.30549        49.100          43.500  
  22252708.055 6     -3410.587 6     -2657.60047   5287308.074 6   4104550.08447
  22252703.83647        44.500          30.500  
 08  1 20 20 12 30.0000000  0 10G02G05G06G10G12G16G21G24G29G30   -0.000161959
  23145233.211 6     -3520.206 6     -2743.01647   6441820.204 6   4985448.82347
  23145227.41847        42.700          27.300  
  23301610.758 5     -3963.862 5     -3088.72246   7361488.261 5   5699575.32846
  23301606.35946        42.200          25.300  
  20744035.180 7      1122.022 7       874.30248  -5757035.231 7  -4468779.00848
  20744030.57448        49.700          38.200  
  20741860.563 7      -718.328 7      -559.73548  -2193223.370 7  -1698848.61248
  20741855.56648        49.000          37.000  
  24286443.938 5     -4071.799 5     -3172.82446   7895902.451 5   6116210.66046
  24286439.16846        39.200          23.000  
  24950897.625 5      2823.193 5      2199.89446  -2698516.778 5  -2028529.04246
  24950892.83646        40.000          19.900  
  23134795.766 5      2574.879 5      2006.39846  -4473764.735 5  -3378467.34846
  23134789.99646        41.500          26.000  
  20463282.406 7       672.194 7       523.78748  -4760986.740 7  -3688546.61748
  20463278.35548        50.600          40.300  
  20335952.281 7       230.874 7       179.90149  -3645079.892 7  -2834704.44749
  20335947.38749        49.100          43.600  
  22255955.195 6     -3412.792 6     -2659.31747   5304372.036 6   4117846.67147
  22255951.21547        43.700          31.200  
 08  1 20 20 12 35.0000000  0 10G02G05G06G10G12G16G21G24G29G30   -0.000160963
  23148582.953 6     -3521.094 6     -2743.70947   6459425.673 6   4999167.37047
  23148577.41447        43.200          26.400  
  23305383.391 5     -3964.844 5     -3089.49046   7381312.479 5   5715022.77846
  23305378.92246        41.900          25.600  
  20742969.758 7      1119.738 7       872.52448  -5762633.920 7  -4473141.62848
  20742965.45348        49.300          38.200  
  20742547.594 7      -721.991 7      -562.59048  -2189613.417 7  -1696035.66148
  20742542.66048        49.800          36.700  
  24290318.672 4     -4072.344 4     -3173.25546   7916264.170 4   6132076.93646
  24290313.59446        38.700          22.500  
  24948213.156 5      2821.585 5      2198.63746  -2712624.704 5  -2039522.22846
  24948208.38746        40.000          19.600  
  23132346.359 5      2573.923 5      2005.65446  -4486634.349 5  -3388495.61846
  23132341.17246        40.900          24.900  
  20462644.836 7       669.894 7       521.99348  -4764336.208 7  -3691156.58448
  20462641.03948        51.200          40.300  
  20335735.109 7       228.311 7       177.90449  -3646221.446 7  -2835593.97049
  20335730.30549        49.300          43.500  
  22259204.203 6     -3414.872 6     -2660.93847   5321446.394 6   4131151.35847
  22259200.28147        44.300          30.800  
 08  1 20 20 12 40.0000000  0 10G02G05G06G10G12G16G21G24G29G30   -0.000159966
  23151934.016 6     -3521.961 6     -2744.38547   6477035.478 6   5012889.29547
  23151928.52347        42.600          26.600  
  23309156.766 5     -3965.771 5     -3090.20846   7401141.334 5   5730473.81546
  23309152.19146        42.200          25.800  
  20741906.672 7      1117.486 7       870.76948  -5768221.351 7  -4477495.47348
  20741902.12948        49.600          38.100  
  20743237.695 6      -725.604 6      -565.40548  -2185985.396 6  -1693208.63648
  20743232.93048        47.000          36.600  
  24294193.758 5     -4072.867 5     -3173.66046   7936628.505 5   6147945.23346
  24294188.84046        39.800          22.500  
  24945530.125 5      2820.027 5      2197.42546  -2726724.838 5  -2050509.35346
  24945525.62146        40.400          20.600  
  23129898.492 5      2573.007 5      2004.94146  -4499499.382 5  -3398520.32546
  23129892.82846        41.700          25.600  
  20462009.445 7       667.627 7       520.22948  -4767674.344 7  -3693757.72948
  20462005.88348        51.300          40.300  
  20335520.281 7       225.787 7       175.93949  -3647350.379 7  -2836473.66549
  20335515.58249        48.900          43.500  
  22262455.711 6     -3416.911 6     -2662.52647   5338530.949 6   4144463.98947
  22262451.08247        44.700          30.600  
 08  1 20 20 12 45.0000000  0 10G02G05G06G10G12G16G21G24G29G30   -0.000158968
  23155285.656 6     -3522.839 6     -2745.06947   6494649.675 6   5026614.64147
  23155280.78947        43.200          26.500  
  23312931.391 5     -3966.752 5     -3090.97746   7420975.094 5   5745928.70146
  23312926.57846        42.300          25.200  
  20740845.828 7      1115.188 7       868.97848  -5773797.292 7  -4481840.36048
  20740840.80548        49.800          38.200  
  20743931.813 7      -729.271 7      -568.26348  -2182339.039 7  -1690367.32048
  20743926.42648        48.400          36.800  
  24298069.125 5     -4073.404 5     -3174.08246   7956995.526 5   6163815.64346
  24298064.45346        39.400          22.000  
  24942847.969 5      2818.438 5      2196.17746  -2740817.026 5  -2061490.24046
  24942843.78946        40.200          19.600  
  23127451.047 5      2572.050 5      2004.19146  -4512359.632 5  -3408541.28046
  23127445.62146        41.600          26.200  
  20461376.547 7       665.331 7       518.43848  -4771000.998 7  -3696349.91948
  20461372.57848        51.100          40.400  
  20335308.195 7       223.222 7       173.93949  -3648466.489 7  -2837343.36149
  20335303.07049        48.800          43.500  
  22265708.766 6     -3418.992 6     -2664.14947   5355625.908 6   4157784.73247
  22265704.55547        44.700          30.500  
 08  1 20 20 12 50.0000000  0 10G02G05G06G10G12G16G21G24G29G30   -0.000157972
  23158638.523 6     -3523.800 6     -2745.82047   6512268.674 6   5040343.74147
  23158633.14147        43.700          26.900  
  23316706.016 5     -3967.783 5     -3091.77446   7440814.011 5   5761387.57346
  23316701.48846        42.200          26.100  
  20739786.656 7      1112.828 7       867.14048  -5779361.433 7  -4486176.06348
  20739782.00048        49.800          38.300  
  20744629.305 7      -733.001 7      -571.16948  -2178674.034 7  -1687511.47748
  20744624.14548        49.400          36.200  
  24301945.328 5     -4074.013 5     -3174.55146   7977365.590 5   6179688.39646
  24301940.62946        39.200          22.500  
  24940168.758 5      2816.742 5      2194.86445  -2754900.737 5  -2072464.56245
  24940163.32445        40.300          18.600  
  23125004.922 5      2571.018 5      2003.39247  -4525214.724 5  -3418558.24047
  23124999.47347        40.900          26.700  
  20460745.422 7       662.957 7       516.59048  -4774315.783 7  -3698932.87048
  20460742.32048        50.900          40.100  
  20335098.047 7       220.577 7       171.87749  -3649569.375 7  -2838202.74749
  20335093.57849        49.900          43.800  
  22268963.742 6     -3421.135 6     -2665.81647   5372731.586 6   4171113.81247
  22268959.49647        44.300          30.900  
 08  1 20 20 12 55.0000000  0 10G02G05G06G10G12G16G21G24G29G30   -0.000156975
  23161992.281 6     -3524.653 6     -2746.48046   6529891.938 6   5054076.14346
  23161986.39146        43.200          25.300  
  23320481.867 5     -3968.710 5     -3092.50246   7460657.563 5   5776850.08446
  23320477.64846        42.300          24.700  
  20738730.102 7      1110.581 7       865.38848  -5784914.337 7  -4490503.00248
  20738725.20748        49.800          38.300  
  20745330.016 7      -736.656 7      -574.01848  -2174990.752 7  -1684641.38748
  20745325.12148        49.300          36.500  
  24305822.164 5     -4074.510 5     -3174.94346   7997738.143 5   6195563.10846
  24305817.27746        39.500          22.200  
  24937490.109 5      2815.182 5      2193.64845  -2768976.648 5  -2083432.80145
  24937484.68045        40.400          18.600  
  23122559.844 5      2570.098 5      2002.67147  -4538065.214 5  -3428571.59347
  23122554.30547        40.800          26.300  
  20460116.977 7       660.696 7       514.82748  -4777619.266 7  -3701507.00748
  20460113.42648        50.200          39.900  
  20334890.320 7       218.047 7       169.90749  -3650659.610 7  -2839052.28249
  20334885.63349        50.000          43.700  
  22272220.789 6     -3423.164 6     -2667.40047   5389847.403 6   4184450.81147
  22272216.66847        44.900          30.900  
 08  1 20 20 13  0.0000000  0 10G02G05G06G10G12G16G21G24G29G30   -0.000155975
  23165346.719 6     -3525.627 6     -2747.24347   6547520.073 6   5067812.35947
  23165341.15647        43.000          26.300  
  23324259.344 6     -3969.777 6     -3093.33246   7480506.446 6   5792316.74246
  23324254.72346        42.800          25.800  
  20737675.906 7      1108.186 7       863.52148  -5790455.269 7  -4494820.60648
  20737671.01248        50.200          38.200  
  20746034.719 7      -740.399 7      -576.93448  -2171288.755 7  -1681756.71648
  20746029.63348        48.400          36.400  
  24309699.180 5     -4075.143 5     -3175.43546   8018113.856 5   6211440.28246
  24309694.62946        39.500          22.200  
  24934812.953 5      2813.462 5      2192.31346  -2783043.958 5  -2094394.36646
  24934807.78546        40.900          19.600  
  23120114.875 5      2569.047 5      2001.85546  -4550910.448 5  -3438580.86646
  23120109.88746        40.600          25.100  
  20459490.422 7       658.301 7       512.96248  -4780910.769 7  -3704071.81548
  20459486.77348        50.900          39.900  
  20334685.492 7       215.387 7       167.83449  -3651736.545 7  -2839891.45349
  20334680.53949        50.300          43.700  
  22275479.781 6     -3425.332 6     -2669.08847   5406974.063 6   4197796.25047
  22275475.71147        45.100          30.800  
 08  1 20 20 13  5.0000000  0 10G02G05G06G10G12G16G21G24G29G30   -0.000154976
  23168701.969 6     -3526.525 6     -2747.93946   6565152.697 6   5081552.05746
  23168696.51646        42.900          25.800  
  23328036.906 5     -3970.744 5     -3094.08546   7500360.168 5   5807787.16646
  23328032.96146        42.400          25.000  
  20736623.625 7      1105.881 7       861.72748  -5795984.675 7  -4499129.24048
  20736618.72348        49.800          38.400  
  20746742.461 7      -744.076 7      -579.79848  -2167568.377 7  -1678857.72648
  20746737.14548        48.900          36.400  
  24313576.805 5     -4075.683 5     -3175.85746   8038492.271 5   6227319.56546
  24313572.48446        39.400          22.300  
  24932137.539 5      2811.840 5      2191.04246  -2797103.159 5  -2105349.57446
  24932132.44946        40.700          19.300  
  23117671.547 5      2568.082 5      2001.10247  -4563750.856 5  -3448586.37647
  23117666.34047        41.400          26.700  
  20458866.648 7       655.995 7       511.16548  -4784190.745 7  -3706627.64048
  20458862.81648        51.100          39.700  
  20334483.086 7       212.814 7       165.82949  -3652800.613 7  -2840720.59649
  20334478.31649        50.200          43.800  
  22278741.117 6     -3427.396 6     -2670.69747   5424111.042 6   4211149.73347
  22278737.03547        44.400          31.500  
 08  1 20 20 13 10.0000000  0 10G02G05G06G10G12G16G21G24G29G30   -0.000153978
  23172058.625 6     -3527.460 6     -2748.66846   6582789.996 6   5095295.39646
  23172052.89846        42.900          24.500  
  23331816.844 6     -3971.740 6     -3094.86046   7520218.870 6   5823261.46446
  23331812.27346        42.600          25.700  
  20735573.445 7      1103.539 7       859.90048  -5801502.368 7  -4503428.74048
  20735568.76648        49.600          38.400  
  20747454.109 7      -747.782 7      -582.68848  -2163829.469 7  -1675944.28848
  20747448.70748        48.000          36.500  
  24317455.320 5     -4076.257 5     -3176.30046   8058873.554 5   6243201.06446
  24317450.82446        39.200          21.800  
  24929464.016 5      2810.176 5      2189.75346  -2811154.038 5  -2116298.33846
  24929459.07446        41.100          19.300  
  23115229.484 5      2567.074 5      2000.31746  -4576586.228 5  -3458587.96346
  23115223.66046        42.000          25.800  
  20458244.375 7       653.642 7       509.33348  -4787458.956 7  -3709174.30648
  20458240.72348        49.900          39.700  
  20334283.359 7       210.191 7       163.78649  -3653851.567 7  -2841539.52349
  20334278.51649        49.400          43.800  
  22282004.516 6     -3429.517 6     -2672.34847   5441258.627 6   4224511.47647
  22281999.87547        44.000          31.300  
 08  1 20 20 13 15.0000000  0 10G02G05G06G10G12G16G21G24G29G30   -0.000152979
  23175416.023 6     -3528.331 6     -2749.34746   6600431.652 6   5109042.13146
  23175409.55146        42.900          24.800  
  23335596.195 6     -3972.693 6     -3095.60547   7540082.337 6   5838739.49047
  23335591.88347        42.800          26.400  
  20734525.781 7      1101.260 7       858.12548  -5807008.669 7  -4507719.36548
  20734521.17648        49.600          38.400  
  20748168.977 7      -751.446 7      -585.54148  -2160072.240 7  -1673016.58348
  20748163.62548        48.900          36.300  
  24321334.406 4     -4076.771 4     -3176.70446   8079257.411 4   6259084.58646
  24321329.71546        38.900          21.700  
  24926791.805 5      2808.579 5      2188.50346  -2825196.933 5  -2127240.85446
  24926787.01246        41.600          19.000  
  23112787.961 5      2566.121 5      1999.57347  -4589416.831 5  -3468585.82547
  23112782.06347        41.900          26.500  
  20457624.789 7       651.349 7       507.54448  -4790715.702 7  -3711712.02448
  20457620.74648        49.900          39.600  
  20334085.750 7       207.633 7       161.79149  -3654889.730 7  -2842348.47749
  20334080.73049        50.200          43.800  
  22285269.281 6     -3431.561 6     -2673.94347   5458416.432 6   4237881.19047
  22285265.10947        44.600          31.700  
 08  1 20 20 13 20.0000000  0 10G02G05G06G10G12G16G21G24G29G30   -0.000151979
  23178774.164 6     -3529.069 6     -2749.92346   6618076.996 6   5122791.74446
  23178768.11746        43.000          25.600  
  23339377.023 5     -3973.509 5     -3096.23747   7559949.880 5   5854220.67347
  23339372.77347        42.400          26.500  
  20733480.047 7      1099.091 7       856.43448  -5812504.122 7  -4512001.53548
  20733475.49648        49.500          38.200  
  20748887.500 7      -754.967 7      -588.28748  -2156297.405 7  -1670075.14648
  20748882.07048        48.400          36.400  
  24325213.133 5     -4077.170 5     -3177.01246   8099643.262 5   6274969.64746
  24325209.32846        39.200          21.700  
  24924121.195 5      2807.086 5      2187.34545  -2839232.364 5  -2138177.58145
  24924115.56345        41.200          18.600  
  23110347.055 5      2565.301 5      1998.93547  -4602243.337 5  -3478580.49847
  23110341.52747        41.800          26.300  
  20457007.109 7       649.185 7       505.86048  -4793961.629 7  -3714241.32448
  20457003.10548        50.200          39.600  
  20333890.211 7       205.201 7       159.89649  -3655915.733 7  -2843147.95849
  20333885.64849        49.800          43.900  
  22288535.766 6     -3433.481 6     -2675.43847   5475583.839 6   4251258.37947
  22288532.14847        44.500          31.900  
 08  1 20 20 13 25.0000000  0 10G02G05G06G10G12G16G21G24G29G30   -0.000150978
  23182132.945 6     -3529.933 6     -2750.59746   6635726.661 6   5136544.73046
  23182126.23846        43.000          25.700  
  23343158.414 6     -3974.442 6     -3096.96346   7579822.091 6   5869705.48746
  23343154.19146        43.600          25.900  
  20732436.438 7      1096.805 7       854.65248  -5817988.146 7  -4516274.79348
  20732431.86348        48.800          38.600  
  20749609.195 7      -758.604 7      -591.12048  -2152504.385 7  -1667119.54748
  20749603.78548        49.000          36.500  
  24329093.422 4     -4077.667 4     -3177.40146   8120031.599 4   6290856.65446
  24329088.87546        38.600          21.300  
  24921451.180 5      2805.471 5      2186.07846  -2853259.721 5  -2149107.96946
  24921446.24246        40.800          19.000  
  23107907.023 5      2564.348 5      1998.19347  -4615065.075 5  -3488571.46147
  23107901.41047        42.400          26.900  
  20456391.672 7       646.892 7       504.07248  -4797196.090 7  -3716761.68348
  20456387.71148        50.600          39.400  
  20333697.734 7       202.641 7       157.90149  -3656928.937 7  -2843937.46449
  20333693.03949        49.200          43.900  
  22291804.508 6     -3435.526 6     -2677.03147   5492761.467 6   4264643.53147
  22291800.88347        44.600          31.000  
 08  1 20 20 13 30.0000000  0 10G02G05G06G10G12G16G21G24G29G30   -0.000149979
  23185491.391 6     -3530.726 6     -2751.21447   6653380.290 6   5150300.80147
  23185485.42647        43.500          26.400  
  23346940.477 5     -3975.307 5     -3097.64146   7599698.626 5   5885193.69446
  23346936.37146        42.300          25.600  
  20731394.672 7      1094.580 7       852.92048  -5823461.047 7  -4520539.39548
  20731390.03148        50.300          38.500  
  20750334.438 7      -762.187 7      -593.91148  -2148693.452 7  -1664149.99148
  20750329.43848        48.200          36.400  
  24332973.813 4     -4078.104 4     -3177.74546   8140422.118 4   6306745.37846
  24332969.40246        38.600          21.100  
  24918783.617 5      2803.927 5      2184.87845  -2867279.357 5  -2160032.35845
  24918778.40245        40.400          18.300  
  23105467.477 5      2563.464 5      1997.50446  -4627882.396 5  -3498558.98046
  23105462.40246        42.100          26.200  
  20455778.219 7       644.676 7       502.34548  -4800419.472 7  -3719273.40648
  20455774.54748        50.700          39.200  
  20333507.516 7       200.149 7       155.96049  -3657929.682 7  -2844717.26249
  20333502.40249        49.600          44.000  
  22295075.781 6     -3437.493 6     -2678.56347   5509948.934 6   4278036.34847
  22295071.35547        45.000          31.100  
 08  1 20 20 13 35.0000000  0 10G02G05G06G10G12G16G21G24G29G30   -0.000148979
  23188851.414 6     -3531.643 6     -2751.93146   6671038.507 6   5164060.45446
  23188845.43846        43.600          22.600  
  23350723.961 6     -3976.291 6     -3098.40846   7619580.079 6   5900685.73646
  23350719.67246        42.500          25.500  
  20730355.578 7      1092.239 7       851.09548  -5828922.242 7  -4524794.86848
  20730351.05548        49.100          38.800  
  20751062.867 7      -765.889 7      -596.79748  -2144864.005 7  -1661166.00548
  20751057.54348        48.600          36.700  
  24336854.031 4     -4078.664 4     -3178.17646   8160815.436 4   6322636.25946
  24336849.96146        38.100          21.500  
  24916117.305 5      2802.254 5      2183.56945  -2881290.629 5  -2170950.20245
  24916112.07445        40.800          18.300  
  23103029.953 6      2562.464 6      1996.72446  -4640694.717 6  -3508542.60146
  23103024.49246        42.600          25.200  
  20455167.234 7       642.332 7       500.51948  -4803631.134 7  -3721776.00348
  20455163.11348        50.200          39.100  
  20333319.211 7       197.536 7       153.92449  -3658917.359 7  -2845486.88349
  20333314.39149        49.700          43.800  
  22298348.516 6     -3439.586 6     -2680.19847   5527146.862 6   4291437.33847
  22298344.22747        44.000          31.100  
 08  1 20 20 13 40.0000000  0 10G02G05G06G10G12G16G21G24G29G30   -0.000147978
  23192212.922 6     -3532.587 6     -2752.66346   6688701.440 6   5177823.77046
  23192206.61346        43.200          24.600  
  23354508.656 6     -3977.298 6     -3099.19147   7639466.568 6   5916181.69047
  23354503.67647        42.900          26.300  
  20729318.469 7      1089.858 7       849.24148  -5834371.531 7  -4529041.07348
  20729314.62948        49.900          38.600  
  20751795.477 7      -769.615 7      -599.70248  -2141015.932 7  -1658167.49748
  20751789.94148        49.800          36.500  
  24340735.227 3     -4079.248 3     -3178.62646   8181211.673 3   6338529.38946
  24340731.51246        37.300          20.600  
  24913452.852 5      2800.552 5      2182.26146  -2895293.387 5  -2181861.50946
  24913447.20346        41.600          19.000  
  23100592.703 5      2561.425 5      1995.91446  -4653501.843 5  -3518522.17146
  23100587.37946        42.100          26.100  
  20454558.617 7       639.962 7       498.67148  -4806830.941 7  -3724269.36048
  20454554.18448        50.000          39.300  
  20333133.633 7       194.895 7       151.86649  -3659891.833 7  -2846246.21349
  20333129.00849        50.000          43.900  
