     2.11           OBSERVATION DATA    GPS(GPS)            RINEX VERSION / TYPE
convertToRinex 1.14 convertToRINEX OPR  21-Jan-08 20:42 UTC PGM / RUN BY / DATE 
----------------------------------------------------------- COMMENT             
rover                                                       MARKER NAME         
                                                            MARKER NUMBER       
GNSS Observer       Trimble                                 OBSERVER / AGENCY   
4651126518          R8 Model 2          Version 3.25        REC # / TYPE / VERS 
                    TRM_R8_GNSS                             ANT # / TYPE        
 -1641692.0585 -3663535.3054  4940994.8287                  APPROX POSITION XYZ 
        0.0000        0.0000        0.0000                  ANTENNA: DELTA H/E/N
     1     1     0                                          WAVELENGTH FACT L1/2
     8    C1    D1    D2    L1    L2    P2    S1    S2      # / TYPES OF OBSERV 
  2008     1    20    20    17   15.0000000     GPS         TIME OF FIRST OBS   
  2008     1    20    21    24   50.0000000     GPS         TIME OF LAST OBS    
     0                                                      RCV CLOCK OFFS APPL 
    14                                                      LEAP SECONDS        
    13                                                      # OF SATELLITES     
   G02   493   416   307   485   355   356   493   356      PRN / # OF OBS      
   G05   230   221   191   228   194   194   230   194      PRN / # OF OBS      
   G06   812   736   736   812   810   810   812   810      PRN / # OF OBS      
   G10   812   719   719   812   812   812   812   812      PRN / # OF OBS      
   G12   135   105     5   120     6     6   135     6      PRN / # OF OBS      
   G15   659   568   512   647   568   569   659   569      PRN / # OF OBS      
   G16   740   697   539   729   556   556   740   556      PRN / # OF OBS      
   G18   326   282   212   313   226   227   326   227      PRN / # OF OBS      
   G21   812   808   805   811   809   810   812   810      PRN / # OF OBS      
   G24   812   719   719   812   812   812   812   812      PRN / # OF OBS      
   G26   703   680   625   697   646   652   703   652      PRN / # OF OBS      
   G29   812   749   748   812   812   812   812   812      PRN / # OF OBS      
   G30   561   471   297   539   320   321   561   321      PRN / # OF OBS      
                                                            END OF HEADER       
 08  1 20 20 17 20.0000000  0 10G02G05G06G10G12G16G21G24G29G30    0.000078243
  23395433.156 6     -2271.55916     -1770.05156    270458.367 6    185066.08246
  23395425.79746        42.500          22.000  
  23576388.680 5     -2717.76015     -2117.73256    229612.836 5    163072.07446
  23576384.51646        41.500          22.600  
  20740391.445 7      2285.38817      1780.82358   -297965.059 7   -209506.52348
  20740387.10548        48.800          38.900  
  20841970.492 7       368.58617       287.21558    -60321.809 7    -41714.08648
  20841965.44548        48.600          36.400  
  24566489.227 5     -2801.21715     -2182.75355    237076.738 5    164548.57845
  24566489.49645        40.500          15.600  
  24852277.461 3      4024.75113      3136.16755   -352092.258 3    -69158.14145
  24852271.84845        36.700          17.800  
  23048784.055 5      3816.64115      2974.01256   -383936.895 5   -253556.16846
  23048779.28146        41.100          21.100  
  20484445.234 7      1837.05317      1431.47258   -225754.465 7   -150466.81348
  20484440.56348        50.300          36.600  
  20381925.602 7      1379.01617      1074.55759   -103103.391 7    -77787.90249
  20381921.14549        50.500          41.700  
  22502114.805 6     -2230.70216     -1738.20257    263774.281 6    188899.87547
  22502111.73847        45.200          33.200  
 08  1 20 20 17 25.0000000  0 10G02G05G06G10G12G16G21G24G29G30    0.000075151
  23397599.297 5     -2275.988 5     -1773.48146    281838.309 5    193933.48846
  23397591.92246        42.300          23.400  
  23578978.172 6     -2722.258 6     -2121.22346    243224.125 6    173678.19146
  23578974.37946        42.700          24.400  
  20738222.688 7      2279.377 7      1776.14848   -309361.945 7   -218387.26648
  20738218.05548        48.500          39.900  
  20841627.039 7       361.355 7       281.58648    -62128.586 7    -43122.01648
  20841621.93048        49.300          37.300  
  24569157.711 5     -2805.290 5     -2185.91445    251103.188 5    175478.14845
  24569157.98445        40.900          15.600  
  24848453.453 3      4019.378 3      3131.99746   -372189.148 3    -84818.12546
  24848447.41446        36.900          19.600  
  23045157.883 5      3811.962 5      2970.37546   -402996.707 5   -268408.04346
  23045152.60246        40.000          21.700  
  20482702.742 7      1831.116 7      1426.85548   -234910.043 7   -157601.09048
  20482698.76248        49.900          37.300  
  20380619.703 7      1372.757 7      1069.69449   -109967.176 7    -83136.37149
  20380615.27749        50.900          43.300  
  22504243.078 6     -2236.292 6     -1742.55448    274955.742 6    197612.64548
  22504239.48048        46.400          34.600  
 08  1 20 20 17 30.0000000  0 10G02G05G06G10G12G16G21G24G29G30    0.000072069
  23399769.172 6     -2280.243 6     -1776.81346    293239.523 6    202817.55546
  23399761.60546        42.600          24.400  
  23581572.898 6     -2726.478 6     -2124.53446    256856.516 6    184300.85946
  23581569.29746        42.900          25.900  
  20736059.516 7      2273.568 7      1771.61048   -320729.785 7   -227245.31648
  20736055.14848        48.500          40.800  
  20841289.523 7       354.314 7       276.08748    -63900.156 7    -44502.44948
  20841284.74248        49.100          37.700  
  24571830.031 5     -2809.081 5     -2188.90245    265148.594 5    186422.66045
  24571831.40645        40.300          16.300  
  24844634.156 4      4014.173 4      3127.92346   -392260.012 4   -100457.74246
  24844627.81646        37.500          20.600  
  23041534.477 5      3807.563 5      2966.92646   -422034.523 5   -283242.67246
  23041529.37546        40.100          22.300  
  20480965.938 7      1825.387 7      1422.37748   -244036.977 7   -164712.97348
  20480961.79748        50.200          37.400  
  20379319.383 7      1366.716 7      1064.97049   -116800.754 7    -88461.22349
  20379314.77349        49.400          43.300  
  22506375.148 6     -2241.620 6     -1746.71748    286163.840 6    206346.23048
  22506372.30148        45.400          34.100  
 08  1 20 20 17 35.0000000  0 10G02G05G06G10G12G16G21G24G29G30    0.000069000
  23401942.086 6     -2284.494 6     -1780.12646    304661.992 6    211718.18446
  23401934.93846        42.500          22.600  
  23584170.180 5     -2730.732 5     -2127.85246    270510.176 5    194940.12146
  23584166.61346        40.100          22.900  
  20733901.117 6      2267.717 6      1767.04548   -332068.371 6   -236080.54348
  20733897.44148        47.400          38.800  
  20840958.680 7       347.235 7       270.56548    -65636.332 7    -45855.27348
  20840954.08648        47.700          36.200  
  24574507.492 5     -2812.947 5     -2191.90745    279213.328 5    197382.19545
  24574506.94945        40.800          15.600  
  24840819.227 2      4008.925 2      3123.82346   -412304.637 2   -116076.85946
  24840814.49246        34.900          19.600  
  23037915.891 5      3803.091 5      2963.43346   -441049.977 5   -298059.83646
  23037911.15246        41.400          22.300  
  20479234.578 7      1819.621 7      1417.87748   -253135.082 7   -171802.35948
  20479230.52748        50.300          35.300  
  20378024.555 7      1360.633 7      1060.22649   -123603.918 7    -93762.35249
  20378020.04349        50.000          42.100  
  22508513.016 6     -2246.984 6     -1750.90847    297398.762 6    215100.77047
  22508509.75447        43.900          31.600  
 08  1 20 20 17 40.0000000  0 10G02G05G06G10G12G16G21G24G29G30    0.000065941
  23404119.484 6     -2288.366 6     -1783.14046    316103.820 6    220633.88346
  23404112.53946        42.600          23.000  
  23586772.508 5     -2734.595 5     -2130.85246    284183.152 5    205594.38346
  23586768.22346        41.000          22.200  
  20731749.086 7      2262.341 7      1762.85948   -343380.074 7   -244894.84048
  20731745.00048        48.100          37.800  
  20840635.102 6       340.582 6       265.38648    -67339.242 6    -47182.20348
  20840629.87148        47.200          34.500  
  24577186.758 5     -2816.395 5     -2194.57845    293295.301 5    208355.08645
  24577186.62145        40.100          13.900  
  24837009.656 3      4004.202 3      3120.14145   -432325.645 3   -131677.56345
  24837004.14545        37.300          17.400  
  23034301.047 5      3799.079 5      2960.32246   -460045.371 5   -312861.44546
  23034296.47346        41.300          21.500  
  20477508.336 7      1814.308 7      1413.74548   -262206.621 7   -178871.08648
  20477504.34448        50.100          35.100  
  20376735.000 7      1355.008 7      1055.84848   -130378.957 7    -99041.59048
  20376730.63748        50.500          40.600  
  22510656.094 6     -2251.940 6     -1754.75647    308658.461 6    223874.55147
  22510652.22347        44.200          30.000  
 08  1 20 20 17 45.0000000  0 10G02G05G06G10G12G16G21G24G29G30    0.000062891
  23406300.797 6     -2292.380 6     -1786.27346    327565.719 6    229565.25046
  23406294.24246        42.800          22.600  
  23589378.531 5     -2738.605 5     -2133.98146    297876.180 5    216264.28946
  23589374.25046        39.900          22.000  
  20729601.672 7      2256.770 7      1758.52348   -354663.922 7   -253687.45748
  20729597.61348        48.300          37.700  
  20840317.094 6       333.772 6       260.08448    -69008.102 6    -48482.62148
  20840312.53948        47.200          34.600  
  24579869.891 5     -2819.986 5                    307395.230 5
                        39.800  
  24833203.523 4      3999.260 4      3116.32345   -452321.945 4   -147259.18045
  24833198.99245        38.000          16.300  
  23030690.977 5      3794.883 5      2957.05046   -479019.785 5   -327646.69546
  23030685.84046        41.200          20.400  
  20475787.406 7      1808.804 7      1409.45748   -271250.641 7   -185918.37148
  20475783.48048        50.700          35.100  
  20375451.211 7      1349.191 7      1051.31848   -137124.910 7   -104298.18048
  20375447.28148        50.800          40.400  
  22512802.609 6     -2257.045 6     -1758.73647    319943.688 6    232668.23047
  22512799.90247        43.500          28.700  
 08  1 20 20 17 50.0000000  0 10G02G05G06G10G12G16G21G24G29G30    0.000059853
  23408486.203 6     -2296.452 6     -1789.43846    339047.977 6    238512.43846
  23408479.35946        42.600          23.300  
  23591988.133 5     -2742.683 5     -2137.15246    311589.594 5    226950.05146
  23591983.97346        40.500          21.800  
  20727459.570 7      2251.124 7      1754.12248   -365919.539 7   -262458.06648
  20727455.86348        47.900          37.700  
  20840006.383 7       326.897 7       254.72648    -70642.586 7    -49756.25048
  20840001.30548        47.700          34.300  
  24582556.320 5     -2823.636 5                    321513.410 5
                        39.200  
  24829402.813 4      3994.234 4      3112.37445   -472293.113 4   -162821.05145
  24829398.69145        37.700          16.300  
  23027084.305 5      3790.613 5      2953.72746   -497972.852 5   -342415.32846
  23027078.93046        41.500          20.100  
  20474071.508 7      1803.237 7      1405.12048   -280266.824 7   -192943.96948
  20474067.40648        50.900          35.500  
  20374173.492 7      1343.297 7      1046.72748   -143841.395 7   -109531.81348
  20374169.12148        49.500          40.900  
  22514955.930 6     -2262.216 6     -1762.76647    331254.770 6    241482.05947
  22514952.02047        44.600          28.700  
 08  1 20 20 17 55.0000000  0 10G02G05G06G10G12G16G21G24G29G30    0.000056824
  23410674.586 6     -2300.248 6     -1792.39846    350549.215 6    247474.43046
  23410668.13746        43.500          22.000  
  23594600.531 5     -2746.458 5     -2140.09946    325321.887 5    237650.54746
  23594596.65646        41.700          21.100  
  20725322.852 7      2245.765 7      1749.94848   -377148.363 7   -271207.80548
  20725319.01648        48.700          37.600  
  20839701.430 7       320.282 7       249.57048    -72243.996 7    -51004.09848
  20839696.54748        48.300          34.100  
  24585246.414 5     -2827.025 5                    335648.535 5
                        39.500  
  24825607.141 4      3989.509 4      3108.70745   -492240.656 4   -178364.58645
  24825602.98445        37.800          16.300  
  23023481.516 5      3786.619 5      2950.60946   -516905.945 5   -357168.37546
  23023475.98046        41.400          19.600  
  20472360.664 7      1797.950 7      1400.99948   -289256.574 7   -199948.96548
  20472356.86348        51.000          35.300  
  20372900.766 7      1337.688 7      1042.35548   -150529.836 7   -114743.58648
  20372896.52348        50.800          40.700  
  22517112.219 6     -2267.107 6     -1766.57747    342590.305 6    250314.94147
  22517109.38747        45.300          27.900  
 08  1 20 20 18  0.0000000  0 10G02G05G06G10G12G16G21G24G29G30    0.000053802
  23412866.633 6     -2303.751 6     -1795.13046    362067.973 6    256450.08246
  23412860.14546        42.500          22.600  
  23597217.172 5     -2749.975 5     -2142.83646    339071.762 5    248364.72746
  23597213.49246        40.400          21.500  
  20723191.031 7      2240.680 7      1745.98448   -388351.766 7   -279937.72748
  20723187.00448        48.300          37.900  
  20839402.789 7       313.980 7       244.66048    -73813.898 7    -52227.39848
  20839397.79748        47.900          34.600  
  24587939.328 5     -2830.106 5                    349799.066 5
                        39.400  
  24821815.828 4      3985.036 4      3105.21245   -512165.836 4   -193890.64545
  24821811.22345        38.400          16.900  
  23019882.875 5      3782.923 5      2947.73846   -535820.563 5   -371907.06346
  23019876.56646        40.800          19.000  
  20470654.305 7      1792.951 7      1397.10448   -298221.328 7   -206934.48448
  20470650.77048        50.900          35.700  
  20371633.102 7      1332.369 7      1038.20948   -157191.680 7   -119934.63348
  20371628.68848        50.700          41.200  
  22519274.055 6     -2271.708 6     -1770.16047    353948.844 6    259165.74247
  22519270.62147        44.000          28.900  
 08  1 20 20 18  5.0000000  0 10G02G05G06G10G12G16G21G24G29G30    0.000050793
  23415061.750 6     -2307.307 6     -1797.90546    373604.508 6    265439.60546
  23415055.86346        43.300          23.600  
  23599837.500 5     -2753.527 5     -2145.60446    352839.395 5    259092.74646
  23599833.62946        41.100          20.900  
  20721064.141 7      2235.570 7      1742.00248   -399529.613 7   -288647.73848
  20721059.84448        49.000          37.400  
  20839110.078 7       307.617 7       239.70248    -75351.984 7    -53425.90648
  20839105.05548        48.800          34.400  
  24590634.336 5     -2833.257 5                    363965.352 5
                        39.900  
  24818028.711 4      3980.551 4      3101.74545   -532068.590 4   -209399.37145
  24818023.96145        38.600          17.800  
  23016286.953 5      3779.186 5      2944.82546   -554716.492 5   -386631.18846
  23016280.85546        40.300          19.300  
  20468953.695 7      1787.910 7      1393.17648   -307160.879 7   -213900.36348
  20468950.28548        50.200          35.600  
  20370370.648 7      1327.020 7      1034.03948   -163826.777 7   -125104.82848
  20370366.22748        50.800          41.200  
  22521440.219 6     -2276.355 6     -1773.78147    365330.617 6    268034.64547
  22521436.16047        43.700          29.300  
 08  1 20 20 18 10.0000000  0 10G02G05G06G10G12G16G21G24G29G30    0.000047789
  23417260.625 5     -2310.707 5     -1800.54146    385158.043 5    274442.30946
  23417254.77346        42.300          24.200  
  23602459.813 5     -2756.908 5     -2148.24346    366623.934 5    269833.96146
  23602456.58646        40.300          20.900  
  20718941.633 7      2230.585 7      1738.11748   -410682.539 7   -297338.32448
  20718937.71948        47.900          37.500  
  20838823.438 7       301.419 7       234.87148    -76859.078 7    -54600.26248
  20838818.69148        48.700          34.600  
  24593332.945 5     -2836.209 5                    378146.398 5
                        39.200  
  24814244.586 4      3976.158 4      3098.29445   -551949.379 4   -224890.84045
  24814240.82845        38.600          16.300  
  23012694.352 5      3775.559 5      2941.99346   -573594.285 5   -401341.15246
  23012687.91846        40.000          19.000  
  20467257.016 7      1783.002 7      1389.35248   -316075.887 7   -220847.12148
  20467253.44948        50.700          36.000  
  20369112.953 7      1321.783 7      1029.96048   -170435.691 7   -130254.62948
  20369108.22748        50.300          41.200  
  22523610.813 6     -2280.837 6     -1777.27347    376734.805 6    276921.00847
  22523606.68447        43.800          28.900  
 08  1 20 20 18 15.0000000  0 10G02G05G06G10G12G16G21G24G29G30    0.000044796
  23419463.227 6     -2314.055 6     -1803.15846    396728.316 6    283458.09846
  23419456.06646        42.800          22.300  
  23605086.500 5     -2760.247 5     -2150.84146    380425.168 5    280588.16846
  23605082.96546        40.600          19.900  
  20716824.117 7      2225.680 7      1734.29648   -421810.938 7   -306009.80548
  20716819.32848        48.700          36.200  
  20838542.570 7       295.273 7       230.08248    -78335.445 7    -55750.67248
  20838537.27748        49.100          34.300  
  24596034.938 4     -2839.144 4                    392342.117 4
                        38.500  
  24810465.820 4      3971.890 4      3094.97645   -571808.828 4   -240365.71945
  24810461.34445        38.700          16.900  
  23009104.734 5      3772.035 5      2939.24645   -592454.461 5   -416037.38345
  23009098.81345        39.900          18.300  
  20465565.555 7      1778.176 7      1385.59148   -324966.766 7   -227775.07848
  20465561.66848        51.300          35.700  
  20367860.164 7      1316.630 7      1025.94648   -177018.840 7   -135384.35948
  20367855.55548        50.300          40.600  
  22525785.086 6     -2285.273 6     -1780.73347    388161.168 6    285824.67247
  22525781.03547        44.100          27.900  
 08  1 20 20 18 20.0000000  0 10G02G05G06G10G12G16G21G24G29G30    0.000041811
  23421667.352 5     -2317.482 5     -1805.82946    408315.727 5    292487.24246
  23421661.19546        42.100          22.000  
  23607715.500 5     -2763.692 5     -2153.52246    394243.629 5    291355.77746
  23607712.35246        40.700          19.600  
  20714710.859 7      2220.663 7      1730.38748   -432914.254 7   -314661.73848
  20714706.98048        47.800          36.700  
  20838267.203 7       289.053 7       225.23948    -79780.711 7    -56876.86748
  20838262.62148        48.900          35.600  
  24598738.336 4     -2842.163 4                    406552.934 4
                        38.000  
  24806691.234 5      3967.492 5      3091.55045   -591646.289 5   -255823.46945
  24806686.55945        39.300          16.900  
  23005519.047 5      3768.387 5      2936.40445   -611296.395 5   -430719.40245
  23005513.90645        39.400          17.800  
  20463877.930 7      1773.235 7      1381.74248   -333832.941 7   -234683.78948
  20463874.44148        50.900          35.900  
  20366612.344 7      1311.373 7      1021.84948   -183575.703 7   -140493.60548
  20366607.74648        49.900          40.600  
  22527963.203 6     -2289.813 6     -1784.26747    399610.234 6    294746.00847
  22527959.18847        43.800          28.000  
 08  1 20 20 18 25.0000000  0 10G02G05G06G10G12G16G21G24G29G30    0.000038834
  23423875.484 6     -2320.739 6     -1808.36846    419919.422 6    301529.08246
  23423869.56346        42.700          21.800  
  23610348.664 5     -2766.898 5     -2156.02446    408078.117 5    302135.89846
  23610344.99646        41.000          20.100  
  20712603.047 7      2215.845 7      1726.63248   -443993.480 7   -323294.89848
  20712598.83648        48.100          37.100  
  20837998.227 7       282.995 7       220.51648    -81195.688 7    -57979.44948
  20837993.44548        48.700          35.800  
  24601446.047 4     -2844.955 4                    420777.707 4
                        37.900  
  24802920.086 4      3963.274 4      3088.26645   -611462.660 4   -271264.79745
  24802915.64145        38.600          17.400  
  23001937.430 4      3764.959 4      2933.73446   -630121.191 4   -445388.07046
  23001931.57846        38.600          19.000  
  20462195.211 7      1768.503 7      1378.05248   -342675.457 7   -241574.05148
  20462192.08648        51.400          36.100  
  20365369.352 7      1306.309 7      1017.90249   -190107.246 7   -145583.11349
  20365364.99249        50.900          41.300  
  22530146.023 6     -2294.121 6     -1787.62647    411080.840 6    303684.13747
  22530141.91447        44.200          28.200  
 08  1 20 20 18 30.0000000  0 10G02G05G06G10G12G16G21G24G29G30    0.000035864
  23426086.672 5     -2323.805 5     -1810.75746    431538.445 5    310582.86746
  23426080.26646        41.800          22.300  
  23612983.938 4     -2769.932 4     -2158.37746    421927.777 4    312927.78546
  23612980.70746        38.800          19.900  
  20710498.852 7      2211.198 7      1723.01248   -455049.473 7   -331909.96148
  20710494.80148        48.000          36.600  
  20837734.508 7       277.131 7       215.94248    -82581.344 7    -59059.16048
  20837729.72348        48.700          34.800  
  24604155.102 4     -2847.589 4                    435015.652 4
                        38.000  
  24799153.281 5      3959.248 5      3085.12645   -631258.898 5   -286690.42645
  24799148.34845        39.800          16.300  
  22998357.578 4      3761.700 4      2931.18946   -648929.691 4   -460044.01646
  22998352.17246        37.900          19.000  
  20460516.938 7      1763.941 7      1374.49948   -351495.164 7   -248446.54748
  20460513.54748        50.100          35.900  
  20364131.156 7      1301.425 7      1014.09648   -196614.371 7   -150653.59448
  20364126.63348        50.400          40.700  
  22532333.141 6     -2298.259 6     -1790.85247    422572.133 6    312638.39847
  22532328.68447        44.500          28.900  
 08  1 20 20 18 35.0000000  0 10G02G05G06G10G12G16G21G24G29G30    0.000032902
  23428300.617 5     -2326.915 5     -1813.17746    443173.020 5    319648.75046
  23428294.02346        42.200          21.700  
  23615621.297 4     -2773.064 4     -2160.83546    435793.098 4    323731.96146
  23615618.86346        38.700          19.900  
  20708399.313 7      2206.477 7      1719.33148   -466081.855 7   -340506.61748
  20708395.02348        48.000          36.100  
  20837476.438 7       271.211 7       211.33748    -83937.398 7    -60115.84448
  20837471.52748        49.100          35.700  
  24606866.617 4     -2850.302 4                    449267.164 4
                        38.100  
  24795390.086 5      3955.156 5      3081.93545   -651034.676 5   -302100.10245
  24795384.94945        39.800          16.900  
  22994781.609 4      3758.336 4      2928.57745   -667721.371 4   -474686.89845
  22994776.27345        38.700          18.300  
  20458842.883 7      1759.314 7      1370.89548   -360291.734 7   -255301.02048
  20458839.77748        50.400          36.000  
  20362897.789 7      1296.473 7      1010.24048   -203096.738 7   -155704.79348
  20362892.79348        50.800          40.900  
  22534523.859 6     -2302.490 6     -1794.14647    434084.582 6    321609.12947
  22534519.93847        45.000          28.700  
 08  1 20 20 18 40.0000000  0 10G02G05G06G10G12G16G21G24G29G30    0.000029945
  23430516.992 6     -2329.733 6     -1815.38146    454821.684 6    328725.65646
  23430510.62546        42.600          21.700  
  23618263.445 5     -2775.844 5     -2162.98946    449672.320 5    334546.90646
  23618260.34046        39.800          19.300  
  20706304.297 6      2202.097 6      1715.92048   -477092.340 6   -349086.21548
  20706299.66848        47.000          36.000  
  20837223.500 7       265.599 7       206.95948    -85265.395 7    -61150.64148
  20837218.92248        49.100          35.500  
  24609581.609 4     -2852.663 4                    463530.477 4
                        38.300  
  24791630.789 4      3951.377 4      3078.99345   -670791.563 4   -317495.06645
  24791626.00845        38.800          17.400  
  22991208.609 4      3755.352 4      2926.24246   -686498.133 4   -489318.10946
  22991203.59046        37.700          19.300  
  20457173.063 7      1755.012 7      1367.54148   -369066.797 7   -262138.72748
  20457169.86748        51.100          36.100  
  20361668.828 7      1291.852 7      1006.63848   -209556.000 7   -160737.98448
  20361663.85548        50.000          41.100  
  22536717.781 6     -2306.362 6     -1797.16247    445616.391 6    330594.94147
  22536713.98847        44.800          28.300  
 08  1 20 20 18 45.0000000  0 10G02G05G06G10G12G16G21G24G29G30    0.000026999
  23432736.336 6     -2332.833 6     -1817.79146    466485.852 6    337814.61346
  23432729.79346        42.500          21.800  
  23620907.063 5     -2778.930 5     -2165.40646    463566.973 5    345373.93846
  23620904.39146        39.600          19.300  
  20704213.602 6      2197.392 6      1712.25448   -488079.301 6   -357647.48448
  20704209.47748        47.100          36.400  
  20836976.484 7       259.694 7       202.35948    -86563.863 7    -62162.43448
  20836971.94548        48.400          35.200  
  24612297.766 4     -2855.346 4                    477807.207 4
                        38.300  
  24787874.977 4      3947.281 4      3075.81245   -690527.969 4   -332874.12545
  24787870.48045        38.900          16.300  
  22987638.594 4      3752.014 4      2923.65145   -705258.203 4   -503936.36345
  22987633.73845        38.300          18.600  
  20455507.984 7      1750.402 7      1363.95148   -377818.805 7   -268958.48048
  20455504.65248        50.500          35.900  
  20360444.141 7      1286.906 7      1002.78548   -215990.531 7   -165751.91048
  20360439.21548        49.800          41.000  
  22538916.594 6     -2310.558 6     -1800.43547    457169.180 6    339597.11747
  22538912.61347        44.600          28.600  
 08  1 20 20 18 50.0000000  0 10G02G05G06G10G12G16G21G24G29G30    0.000024057
  23434959.164 5     -2335.583 5     -1819.93246    478163.770 5    346914.27346
  23434951.90246        41.900          22.000  
  23623554.203 5     -2781.659 5     -2167.52146    477475.270 5    356211.54346
  23623551.06646        40.400          19.600  
  20702126.781 6      2193.061 6      1708.88048   -499044.605 6   -366191.88748
  20702122.09848        47.200          36.000  
  20836734.945 7       254.136 7       198.02948    -87834.543 7    -63152.57848
  20836729.60248        48.000          34.700  
  24615017.250 4     -2857.665 4                    492095.531 4
                        37.900  
  24784122.477 5      3943.552 5      3072.88545   -710245.730 5   -348238.55145
  24784117.77345        39.300          15.600  
  22984071.820 5      3749.076 5      2921.35645   -724003.582 5   -518543.14545
  22984066.49645        39.300          18.300  
  20453846.453 7      1746.159 7      1360.64248   -386549.602 7   -275761.69148
  20453842.57848        51.200          36.000  
  20359223.984 7      1282.333 7       999.21948   -222402.195 7   -170748.00448
  20359219.14148        50.500          40.900  
  22541118.742 6     -2314.378 6     -1803.41247    468741.070 6    348614.17647
  22541114.53147        45.700          27.700  
 08  1 20 20 18 55.0000000  0 10G02G05G06G10G12G16G21G24G29G30    0.000021124
  23437184.055 5     -2338.344 5     -1822.08746    489855.488 5    356024.70746
  23437176.43846        42.200          22.000  
  23626202.984 4     -2784.393 4     -2169.65946    491397.234 4    367059.84046
  23626200.49246        39.000          19.300  
  20700044.172 6      2188.698 6      1705.47748   -509988.098 6   -374719.27048
  20700040.06648        47.400          35.100  
  20836498.266 7       248.570 7       193.69248    -89077.391 7    -64121.03948
  20836493.23048        49.200          34.900  
  24617738.086 4     -2859.975 4                    506395.406 4
                        37.800  
  24780373.422 5      3939.817 5      3069.99445   -729944.816 5   -363588.52045
  24780369.02045        39.200          15.600  
  22980507.344 5      3746.092 5      2919.02845   -742734.043 5   -533138.28545
  22980502.35945        39.500          18.300  
  20452188.938 7      1741.898 7      1357.32348   -395259.090 7   -282548.30548
  20452185.36348        50.700          35.900  
  20358008.461 7      1277.739 7       995.64148   -228790.891 7   -175726.21148
  20358003.50848        50.800          40.500  
  22543324.211 6     -2318.215 6     -1806.39947    480332.145 6    357646.17247
  22543320.17647        44.000          27.400  
 08  1 20 20 19  0.0000000  0 10G02G05G06G10G12G16G21G24G29G30    0.000018194
  23439411.586 6     -2341.047 6     -1824.19146    501560.723 6    365145.66446
  23439404.00446        42.800          21.500  
  23628854.805 5     -2787.076 5     -2171.74246    505332.613 5    377918.55146
  23628852.00046        39.500          19.000  
  20697965.977 6      2184.395 6      1702.12748   -520910.074 6   -383229.90248
  20697961.41048        47.200          35.000  
  20836267.023 7       243.064 7       189.40048    -90292.711 7    -65068.03948
  20836261.81648        49.500          35.100  
  24620462.000 4     -2862.262 4                    520706.719 4
                        38.100  
  24776629.070 5      3936.131 5      3067.11945   -749625.473 5   -378924.11345
  24776623.47745        39.200          16.300  
  22976945.313 5      3743.175 5      2916.76145   -761449.918 5   -547722.09045
  22976940.57845        39.800          18.300  
  20450535.727 7      1737.684 7      1354.04048   -403947.508 7   -289318.50448
  20450532.20348        51.000          36.300  
  20356796.883 7      1273.188 7       992.09548   -235156.828 7   -180686.68448
  20356792.32048        51.000          41.200  
  22545533.539 6     -2322.005 6     -1809.35347    491942.168 6    366692.93847
  22545529.76247        44.600          27.000  
 08  1 20 20 19  5.0000000  0 10G02G05G06G10G12G16G21G24G29G30    0.000015274
  23441640.680 5     -2343.882 5     -1826.40246    513280.133 5    374277.67246
  23441633.82446        41.500          21.300  
  23631508.922 4     -2789.887 4     -2173.93745    519282.051 4    388788.23445
  23631506.40245        38.300          18.300  
  20695891.711 7      2179.963 7      1698.67148   -531809.891 7   -391723.25848
  20695887.68448        48.000          35.300  
  20836041.016 7       237.429 7       185.01048    -91479.855 7    -65993.09048
  20836035.82048        49.600          35.100  
  24623187.070 3     -2864.659 3                    535030.012 3
                        36.900  
  24772887.086 4      3932.312 4      3064.13445   -769287.031 4   -394244.78545
  24772882.54745        38.600          16.300  
  22973387.188 5      3740.120 5      2914.38045   -780150.520 5   -562293.98845
  22973382.07845        40.700          18.600  
  20448886.203 7      1733.346 7      1350.65948   -412614.238 7   -296071.79748
  20448882.66848        50.600          36.100  
  20355590.016 7      1268.517 7       988.45448   -241499.414 7   -185628.95348
  20355585.30548        51.400          41.000  
  22547746.750 6     -2325.921 6     -1812.40446    503571.773 6    375754.95746
  22547742.64846        44.100          26.200  
 08  1 20 20 19 10.0000000  0 10G02G05G06G10G12G16G21G24G29G30    0.000012358
  23443873.531 5     -2346.344 5     -1828.32146    525011.855 5    383419.27746
  23443866.60246        41.100          21.100  
  23634166.438 4     -2792.302 4     -2175.82345    533243.563 4    399667.35245
  23634163.20345        39.100          17.400  
  20693821.164 7      2175.906 7      1695.51148   -542689.422 7   -400200.81348
  20693817.09448        47.800          35.400  
  20835820.406 7       232.152 7       180.89848    -92640.613 7    -66897.57848
  20835814.95348        48.500          34.800  
  24625914.117 4     -2866.662 4                    549363.320 4
                        37.500  
  24769149.672 4      3928.855 4      3061.45745   -788931.305 4   -409552.07045
  24769144.39145        38.300          15.600  
  22969831.008 5      3737.456 5      2912.30645   -798837.801 5   -576855.52045
  22969825.63345        40.600          18.600  
  20447241.102 7      1729.390 7      1347.57648   -421261.188 7   -302809.67648
  20447237.36748        50.800          36.200  
  20354386.648 7      1264.232 7       985.11648   -247820.574 7   -190554.53148
  20354382.13748        51.000          40.500  
  22549963.336 6     -2329.434 6     -1815.14147    515218.941 6    384830.66447
  22549958.70347        44.700          27.000  
 08  1 20 20 19 15.0000000  0 10G02G05G06G10G12G16G21G24G29G30    0.000009447
  23446108.156 5     -2348.657 5     -1830.12146    536755.141 5    392569.88346
  23446101.08646        42.200          21.300  
  23636825.039 4     -2794.616 4     -2177.62345    547216.641 4    410555.46545
  23636822.24245        38.400          16.900  
  20691754.797 6      2171.976 6      1692.44848   -553549.301 6   -408663.05548
  20691750.55148        46.500          35.300  
  20835604.531 7       227.045 7       176.91948    -93775.836 7    -67782.17248
  20835599.20348        49.300          34.700  
  24628643.641 4     -2868.566 4                    563706.148 4
                        37.400  
  24765414.438 4      3925.527 4      3058.83545   -808558.941 4   -424846.24645
  24765408.93445        38.300          16.900  
  22966277.352 5      3734.905 5      2910.30646   -817512.324 5   -591407.05146
  22966272.25446        41.800          20.400  
  20445599.289 7      1725.554 7      1344.58848   -429888.957 7   -309532.61348
  20445595.25448        51.800          36.600  
  20353188.297 7      1260.061 7       981.86648   -254120.879 7   -195463.86348
  20353183.11748        51.500          40.400  
  22552182.398 6     -2332.836 6     -1817.79247    526883.121 6    393919.62547
  22552178.27347        44.500          26.600  
 08  1 20 20 19 20.0000000  0 10G02G05G06G10G12G16G21G24G29G30    0.000006542
  23448345.578 5     -2351.281 5     -1832.17046    548511.547 5    401730.73446
  23448338.15646        42.100          21.500  
  23639485.977 4     -2797.185 4     -2179.62945    561202.566 4    421453.60945
  23639483.35245        38.400          15.600  
  20689692.250 6      2167.763 6      1689.16648   -564388.117 6   -417108.88748
  20689688.02048        47.300          34.800  
  20835393.664 7       221.627 7       172.69848    -94883.969 7    -68645.66048
  20835388.57448        48.700          34.100  
  24631375.930 4     -2870.722 4                    578059.758 4
                        37.800  
  24761682.508 4      3921.908 4      3056.04145   -828168.480 4   -440126.44945
  24761677.55145        38.400          16.900  
  22962726.938 5      3732.081 5      2908.12446   -836172.727 5   -605947.66846
  22962721.19146        41.100          19.300  
  20443961.297 7      1721.446 7      1341.38748   -438496.188 7   -316239.55148
  20443957.73048        51.100          36.400  
  20351993.586 7      1255.614 7       978.40248   -260398.949 7   -200355.87548
  20351988.73448        51.100          40.500  
  22554404.992 6     -2336.493 6     -1820.64347    538565.586 6    403022.84047
  22554401.57447        43.900          27.000  
 08  1 20 20 19 25.0000000  0 10G02G05G06G10G12G16G21G24G29G30    0.000003643
  23450585.367 5     -2353.613 5     -1833.98446    560279.609 5    410900.65246
  23450577.50846        41.900          22.000  
  23642150.203 4     -2799.473 4     -2181.39945    575199.930 4    432360.60545
  23642147.11745        38.000          15.600  
  20687633.000 6      2163.816 6      1686.09148   -575207.195 6   -425539.34448
  20687628.95348        45.600          35.100  
  20835187.500 7       216.491 7       168.69348    -95966.426 7    -69489.12548
  20835182.37948        47.900          34.700  
  24634108.555 3     -2872.616 3                    592422.840 3
                        37.300  
  24757954.523 4      3918.561 4      3053.41745   -847761.285 4   -455393.53145
  24757948.97345        37.600          17.400  
  22959177.570 5      3729.523 5      2906.11946   -854820.340 5   -620478.26246
  22959172.84046        40.900          19.900  
  20442327.242 7      1717.607 7      1338.39548   -447084.223 7   -322931.52348
  20442323.37948        51.800          36.400  
  20350802.664 7      1251.444 7       975.15049   -266656.168 7   -205231.62549
  20350797.69949        50.300          41.300  
  22556632.156 6     -2339.895 6     -1823.29446    550265.059 6    412139.30946
  22556628.25446        45.800          26.200  
 08  1 20 20 19 30.0000000  0 10G02G05G06G10G12G16G21G24G29G30    0.000000750
  23452826.984 5     -2356.034 5     -1835.86646    572059.777 5    420079.98446
  23452819.40646        41.300          22.200  
  23644816.133 4     -2801.892 4     -2183.29745    589209.391 4    443277.09045
  23644813.27745        38.800          15.600  
  20685578.336 6      2159.759 6      1682.92748   -586005.992 6   -433953.97748
  20685574.07848        46.400          35.400  
  20834986.430 7       211.266 7       164.62648    -97022.758 7    -70312.25448
  20834981.21148        49.500          34.800  
  24636844.195 3     -2874.621 3                    606795.945 3
                        36.600  
  24754229.445 4      3915.123 4      3050.75245   -867336.898 4   -470647.29345
  24754223.75045        37.900          16.900  
  22955631.680 5      3726.832 5      2904.02246   -873454.500 5   -634998.37146
  22955627.00846        41.600          20.100  
  20440696.563 7      1713.648 7      1335.31048   -455652.465 7   -329608.07448
  20440692.35548        51.600          36.500  
  20349616.422 7      1247.153 7       971.80948   -272891.934 7   -210090.66848
  20349611.46948        51.400          40.900  
  22558861.539 6     -2343.425 6     -1826.04546    561982.184 6    421269.53146
  22558857.61346        44.900          25.400  
 08  1 20 20 19 35.0000000  0 10G02G05G06G10G12G16G21G24G29G30   -0.000002138
  23455070.461 5     -2358.359 5     -1837.68746    583851.574 5    429268.41846
  23455063.06346        42.000          22.200  
  23647483.742 4     -2804.154 4     -2185.05245    603230.159 4    454202.34745
  23647480.93845        38.100          16.900  
  20683527.234 6      2155.842 6      1679.87848   -596785.203 6   -442353.36748
  20683522.77048        46.000          34.400  
  20834790.766 7       206.130 7       160.62048    -98053.406 7    -71115.35548
  20834785.10248        50.200          34.500  
  24639581.375 3     -2876.470 3                    621178.297 3
                        36.300  
  24750507.109 4      3911.792 4      3048.14245   -886895.855 4   -485888.00445
  24750501.55545        37.900          17.400  
  22952088.852 6      3724.308 6      2902.05846   -892076.039 6   -649508.66046
  22952083.50446        42.500          19.900  
  20439069.742 7      1709.841 7      1332.34448   -464201.668 7   -336269.79348
  20439065.99648        51.400          36.200  
  20348433.453 7      1242.999 7       968.57048   -279106.930 7   -214933.52048
  20348428.46148        50.900          41.200  
  22561094.773 6     -2346.782 6     -1828.65947    573716.094 6    430412.82447
  22561090.47747        44.200          27.100  
 08  1 20 20 19 40.0000000  0 10G02G05G06G10G12G16G21G24G29G30   -0.000005022
  23457317.008 5     -2360.540 5     -1839.37846    595654.273 5    438465.30946
  23457309.19546        41.600          22.300  
  23650153.984 4     -2806.345 4     -2186.77145    617261.883 4    465136.19945
  23650151.56645        37.400          15.600  
  20681479.813 6      2152.029 6      1676.90748   -607545.348 6   -450737.90248
  20681474.93448        45.800          34.400  
  20834599.313 7       201.134 7       156.72748    -99059.078 7    -71898.99248
  20834593.71148        49.700          34.800  
  24642319.195 2     -2878.251 2                    635569.555 2
                        34.900  
  24746788.352 4      3908.595 4      3045.65645   -906438.832 4   -501116.28145
  24746782.79745        37.700          17.400  
  22948547.984 6      3721.883 6      2900.17146   -910685.453 6   -664009.51646
  22948542.07046        42.600          20.400  
  20437446.383 7      1706.126 7      1329.44848   -472732.297 7   -342917.03548
  20437442.39848        51.600          36.100  
  20347254.672 7      1238.951 7       965.41648   -285301.684 7   -219760.59848
  20347249.89848        52.300          41.100  
  22563330.266 6     -2350.055 6     -1831.21347    585466.371 6    439568.88747
  22563326.96547        44.100          27.900  
 08  1 20 20 19 45.0000000  0 10G02G05G06G10G12G16G21G24G29G30   -0.000007898
  23459565.117 5     -2363.069 5     -1841.34846    607469.617 5    447672.05146
  23459557.96146        42.400          21.800  
  23652826.828 4     -2808.799 4     -2188.66645    631305.879 4    476079.52745
  23652823.71545        38.400          14.800  
  20679436.297 6      2147.895 6      1673.68348   -618284.820 6   -459106.31648
  20679431.73848        45.700          34.400  
  20834412.617 7       195.826 7       152.59348   -100038.207 7    -72661.95748
  20834407.60548        49.800          34.600  
  24645059.617 3     -2880.313 3                    649971.117 3
                        36.100  
  24743071.641 4      3905.019 4      3042.87045   -925963.926 4   -516330.62945
  24743067.08645        37.500          16.300  
  22945008.625 5      3719.130 5      2898.02046   -929281.105 5   -678499.61346
  22945003.64146        41.800          19.900  
  20435827.422 7      1702.088 7      1326.30348   -481242.738 7   -349548.55148
  20435823.48048        51.600          36.500  
  20346080.398 7      1234.571 7       962.00548   -291474.539 7   -224570.62148
  20346075.34048        51.200          40.300  
  22565569.781 6     -2353.616 6     -1833.98546    597234.449 6    448738.81346
  22565566.34446        44.500          26.100  
 08  1 20 20 19 50.0000000  0 10G02G05G06G10G12G16G21G24G29G30   -0.000010773
  23461815.344 6     -2365.218 6     -1843.02846    619295.707 6    456887.19146
  23461808.47746        42.500          22.300  
  23655500.625 3     -2810.923 3     -2190.33345    645360.492 3    487031.19145
  23655498.18845        37.200          15.600  
  20677396.258 6      2144.126 6      1670.74848   -629005.453 6   -467460.05948
  20677391.35548        45.300          34.000  
  20834230.859 7       190.850 7       148.71248   -100992.457 7    -73405.52048
  20834226.18848        49.500          34.500  
  24647802.844 3     -2882.000 3                    664381.117 3
                        36.300  
  24739359.039 3      3901.874 3      3040.42045   -945473.293 3   -531532.73045
  24739354.42245        36.700          16.300  
  22941472.000 5      3716.763 5      2896.18246   -947864.922 5   -692980.52346
  22941466.84446        41.800          20.900  
  20434211.406 7      1698.435 7      1323.45648   -489734.914 7   -356165.83248
  20434207.02748        52.000          37.100  
  20344909.336 7      1230.579 7       958.89248   -297627.434 7   -229365.08248
  20344904.50048        51.200          40.500  
  22567812.250 6     -2356.823 6     -1836.48047    609018.563 6    457921.21547
  22567808.78947        45.100          27.500  
 08  1 20 20 19 55.0000000  0 10G02G05G06G10G12G16G21G24G29G30   -0.000013641
  23464067.461 5     -2367.316 5     -1844.65946    631132.285 5    466110.48446
  23464061.44946        42.100          22.600  
  23658177.445 4     -2812.980 4     -2191.92945    659425.395 4    497990.83645
  23658174.39845        38.300          16.300  
  20675359.383 6      2140.391 6      1667.83848   -639707.410 6   -475799.24648
  20675354.85248        45.500          34.200  
  20834054.102 7       185.957 7       144.90148   -101922.242 7    -74130.02348
  20834049.23448        49.300          34.500  
  24650546.078 3     -2883.692 3                    678799.578 3
                        36.200  
  24735649.945 3      3898.727 3      3037.96045   -964966.930 3   -546722.53145
  24735645.14845        37.300          16.300  
  22937938.453 5      3714.406 5      2894.34346   -966436.953 5   -707452.23846
  22937933.03146        41.800          20.900  
  20432598.469 7      1694.810 7      1320.63148   -498208.965 7   -362768.98848
  20432594.89148        51.800          36.400  
  20343742.430 7      1226.620 7       955.80948   -303760.531 7   -234144.12548
  20343737.15648        50.700          40.100  
  22570057.766 6     -2359.988 6     -1838.95147    620818.500 6    467115.96947
  22570054.33647        45.400          27.900  
 08  1 20 20 20  0.0000000  0 10G02G05G06G10G12G16G21G24G29G30   -0.000016504
  23466322.797 5     -2369.642 5     -1846.47446    642980.496 5    475342.85546
  23466315.89146        41.900          23.300  
  23660856.992 4     -2815.262 4     -2193.70745    673501.703 4    508959.37145
  23660853.38745        38.600          14.800  
  20673326.414 6      2136.441 6      1664.75948   -650389.613 6   -484123.04348
  20673321.86348        45.900          34.600  
  20833882.469 7       180.822 7       140.90248   -102826.352 7    -74834.53548
  20833877.32848        49.300          34.200  
  24653291.570 3     -2885.564 3                    693227.398 3
                        36.000  
  24731944.172 3      3895.374 3      3035.35145   -984443.801 3   -561899.28545
  24731938.91445        36.400          15.600  
  22934406.922 5      3711.850 5      2892.35046   -984996.203 5   -721913.98846
  22934401.60246        41.300          20.600  
  20430989.852 7      1690.969 7      1317.63748   -506663.813 7   -369357.17648
  20430985.71548        52.000          36.700  
  20342579.063 7      1222.435 7       952.54648   -309872.707 7   -238906.85548
  20342573.71148        51.000          40.100  
  22572306.109 6     -2363.363 6     -1841.57847    632635.316 6    476323.85947
  22572302.78547        45.200          26.700  
 08  1 20 20 20  5.0000000  0 10G02G05G06G10G12G16G21G24G29G30   -0.000019363
  23468579.055 6     -2371.747 6     -1848.11346    654839.230 6    484583.42246
  23468573.05146        43.000          24.200  
  23663536.320 3     -2817.326 3     -2195.31745    687588.332 3    519935.95745
  23663534.44145        37.300          16.300  
  20671297.742 6      2132.702 6      1661.84448   -661053.125 6   -492432.26648
  20671292.94548        45.900          34.100  
  20833714.563 7       175.909 7       137.07247   -103705.895 7    -75519.89547
  20833709.88347        49.100          33.400  
  24656039.414 3     -2887.205 3                    707663.422 3
                        36.800  
  24728241.234 3      3892.235 3      3032.91045  -1003904.977 3   -577063.83645
  24728235.93045        36.800          16.300  
  22930877.063 5      3709.498 5      2890.51846  -1003543.691 5   -736366.57846
  22930872.03546        40.600          21.500  
  20429384.273 7      1687.345 7      1314.81648   -515100.539 7   -375931.25448
  20429380.03148        52.000          36.400  
  20341419.828 7      1218.462 7       949.45148   -315965.016 7   -243654.10948
  20341414.65648        50.300          39.600  
  22574558.164 6     -2366.524 6     -1844.04646    644467.938 6    485544.09046
  22574554.81346        44.800          26.000  
 08  1 20 20 20 10.0000000  0 10G02G05G06G10G12G16G21G24G29G30   -0.000022217
  23470837.586 6     -2373.932 6     -1849.81646    666708.891 6    493832.50046
  23470831.41446        43.200          24.700  
  23666219.305 4     -2819.465 4     -2196.99545    701685.656 4    530920.93445
  23666216.52345        38.600          16.300  
  20669271.891 6      2128.883 6      1658.87048   -671697.539 6   -500726.61748
  20669267.09048        46.600          34.400  
  20833552.164 7       170.932 7       133.19147   -104560.555 7    -76185.85247
  20833547.32447        48.300          33.700  
  24658788.938 3     -2888.930 3                    722108.074 3
                        35.700  
  24724540.031 4      3889.001 4      3030.39845  -1023349.980 4   -592215.82845
  24724535.89545        37.400          16.300  
  22927349.484 5      3707.074 5      2888.62946  -1022079.063 5   -750809.72346
  22927344.71546        40.900          22.300  
  20427782.328 7      1683.640 7      1311.92748   -523518.738 7   -382490.89148
  20427778.16048        51.300          36.800  
  20340264.445 7      1214.414 7       946.29748   -322037.086 7   -248385.59448
  20340259.05548        50.200          39.500  
  22576812.961 6     -2369.751 6     -1846.55447    656316.695 6    494776.85947
  22576809.43047        44.300          26.900  
 08  1 20 20 20 15.0000000  0 10G02G05G06G10G12G16G21G24G29G30   -0.000025066
  23473098.469 6     -2375.873 6     -1851.32746    678588.254 6    503089.13746
  23473092.39546        43.400          25.500  
  23668903.914 4     -2821.349 4     -2198.44745    715792.402 4    541913.16845
  23668902.00845        39.100          14.800  
  20667249.906 6      2125.326 6      1656.10048   -682324.168 6   -509007.11748
  20667245.12548        45.600          35.200  
  20833393.898 7       166.187 7       129.49848   -105391.488 7    -76833.34048
  20833389.02348        48.400          34.400  
  24661538.227 3     -2890.415 3                    736560.148 3
                        36.200  
  24720842.781 3      3886.038 3      3028.07445  -1042780.168 3   -607356.19945
  24720838.07445        36.700          16.300  
  22923824.031 5      3704.904 5      2886.93346  -1040603.582 5   -765244.38746
  22923819.75846        41.200          21.700  
  20426183.828 7      1680.198 7      1309.24548   -531919.727 7   -389037.11748
  20426179.60248        51.300          36.900  
  20339112.250 7      1210.620 7       943.34148   -328090.188 7   -253102.30148
  20339107.52748        50.200          39.800  
  22579070.742 6     -2372.724 6     -1848.87446    668180.316 6    504021.23046
  22579067.02346        45.200          25.900  
 08  1 20 20 20 20.0000000  0 10G02G05G06G10G12G16G21G24G29G30   -0.000027912
  23475361.500 6     -2377.983 6     -1852.97246    690478.168 6    512353.99646
  23475355.06346        43.200          25.200  
  23671589.953 4     -2823.417 4     -2200.06845    729909.488 4    552913.50845
  23671588.50845        38.600          15.600  
  20665231.602 7      2121.558 7      1653.16248   -692931.957 7   -517272.92648
  20665226.43448        47.600          34.500  
  20833240.398 7       161.258 7       125.65548   -106197.777 7    -77461.61748
  20833235.35548        49.100          34.400  
  24664289.352 3     -2892.059 3                    751020.441 3
                        35.700  
  24717147.914 4      3882.872 4      3025.61645  -1062194.527 4   -622484.28145
  24717143.71545        37.700          15.600  
  22920301.984 5      3702.541 5      2885.09846  -1059116.285 5   -779669.87546
  22920296.83646        41.800          20.400  
  20424588.656 7      1676.551 7      1306.40248   -540302.480 7   -395569.12948
  20424584.70348        51.200          36.400  
  20337963.883 7      1206.630 7       940.23148   -334123.340 7   -257803.45748
  20337959.23048        51.200          39.200  
  22581331.125 6     -2375.899 6     -1851.34846    680059.813 6    513277.97346
  22581327.68046        45.000          26.200  
 08  1 20 20 20 25.0000000  0 10G02G05G06G10G12G16G21G24G29G30   -0.000030752
  23477626.273 6     -2379.963 6     -1854.51646    702377.984 6    521626.57446
  23477619.93446        43.600          25.400  
  23674278.406 5     -2825.353 5     -2201.56645    744036.254 5    563921.33645
  23674276.50445        39.500          16.300  
  20663216.359 7      2117.934 7      1650.33848   -703521.625 7   -525524.61348
  20663211.59048        48.000          35.000  
  20833091.578 7       156.470 7       121.92548   -106980.129 7    -78071.24248
  20833086.77348        48.300          34.800  
  24667042.766 2     -2893.604 2                    765488.461 2
                        34.300  
  24713457.320 3      3879.815 3      3023.23445  -1081593.602 3   -637600.45345
  24713451.86745        37.300          16.300  
  22916781.219 5      3700.298 5      2883.34846  -1077617.773 5   -794086.61346
  22916776.09046        41.300          21.100  
  20422996.406 7      1673.041 7      1303.67048   -548667.684 7   -402087.47748
  20422992.53548        50.300          36.900  
  20336819.688 7      1202.777 7       937.22948   -340137.227 7   -262489.60248
  20336814.75448        50.700          39.900  
  22583594.352 6     -2378.937 6     -1853.71347    691954.496 6    522546.53947
  22583591.12947        44.500          27.000  
 08  1 20 20 20 30.0000000  0 10G02G05G06G10G12G16G21G24G29G30   -0.000033590
  23479892.086 6     -2381.780 6     -1855.93147    714286.883 6    530906.23047
  23479886.12547        44.500          27.000  
  23676968.820 5     -2827.134 5     -2202.96645    758171.926 5    574936.16445
  23676966.68845        39.800          17.800  
  20661204.680 6      2114.475 6      1647.64248   -714094.000 6   -533762.82448
  20661199.51648        47.200          35.700  
  20832947.211 7       151.849 7       118.32448   -107739.375 7    -78662.86348
  20832942.84448        47.600          36.000  
  24669797.875 2     -2894.952 2                    779963.219 2
                        35.400  
  24709768.359 4      3876.979 4      3021.02045  -1100978.496 4   -652705.55545
  24709762.92645        38.100          16.900  
  22913262.555 6      3698.235 6      2881.73946  -1096108.949 6   -808495.30946
  22913257.17246        42.500          22.000  
  20421407.586 7      1669.698 7      1301.06548   -557016.176 7   -408592.80148
  20421403.80148        50.500          37.300  
  20335678.852 7      1199.089 7       934.35548   -346132.672 7   -267161.37948
  20335673.96948        48.900          40.800  
  22585860.477 6     -2381.808 6     -1855.94847    703863.535 6    531826.28147
  22585857.25447        43.700          27.000  
 08  1 20 20 20 35.0000000  0 10G02G05G06G10G12G16G21G24G29G30   -0.000036423
  23482160.094 6     -2383.730 6     -1857.45246    726205.531 6    540193.48846
  23482154.47346        44.000          26.100  
  23679660.453 5     -2829.034 5     -2204.43745    772317.094 5    585958.34845
  23679658.41445        39.700          16.900  
  20659196.508 7      2110.885 7      1644.84548   -724648.426 7   -541987.05148
  20659191.22348        48.300          36.200  
  20832807.219 6       147.094 6       114.61748   -108474.844 6    -79235.94948
  20832802.89548        47.500          36.100  
  24672553.117 2     -2896.466 2                    794445.551 2
                        34.600  
  24706082.578 4      3873.948 4      3018.66345  -1120348.234 4   -667798.86745
  24706077.15645        38.200          17.400  
  22909745.461 6      3696.029 6      2880.02546  -1114589.094 6   -822895.43446
  22909740.44146        42.600          21.700  
  20419822.391 7      1666.226 7      1298.35748   -565347.305 7   -415084.58648
  20419818.50448        50.800          37.300  
  20334541.539 7      1195.266 7       931.37748   -352109.000 7   -271818.26648
  20334537.14848        50.500          40.500  
  22588129.766 6     -2384.805 6     -1858.29047    715787.559 6    541117.73047
  22588126.85547        45.600          27.600  
 08  1 20 20 20 40.0000000  0 10G02G05G06G10G12G16G21G24G29G30   -0.000039253
  23484429.797 6     -2385.813 6     -1859.07147    738134.598 6    549488.84447
  23484424.81347        44.100          26.400  
  23682354.195 5     -2831.038 5     -2206.00245    786472.281 5    596988.35945
  23682351.59845        40.000          16.900  
  20657191.203 7      2107.167 7      1641.94748   -735184.258 7   -550196.78548
  20657186.10248        48.200          36.600  
  20832671.719 7       142.212 7       110.81648   -109185.906 7    -79790.03148
  20832667.17648        48.100          36.200  
  24675310.758 1                                    808935.82811
                        33.800  
  24702399.922 4      3870.826 4      3016.22845  -1139702.363 4   -682880.00845
  24702394.00445        38.400          16.900  
  22906231.789 5      3693.715 5      2878.21646  -1133057.668 5   -837286.51646
  22906226.03946        42.200          21.800  
  20418240.734 7      1662.629 7      1295.55548   -573660.449 7   -421562.36348
  20418236.47348        51.200          37.400  
  20333408.086 7      1191.325 7       928.30448   -358065.625 7   -276459.78548
  20333403.51648        50.300          40.700  
  22590401.938 6     -2387.904 6     -1860.70247    727727.078 6    550421.23847
  22590398.43847        45.200          29.000  
 08  1 20 20 20 45.0000000  0 10G02G05G06G10G12G16G21G24G29G30   -0.000042076
  23486702.719 6     -2387.739 6     -1860.57146    750073.293 6    558791.69946
  23486696.25046        43.900          25.700  
  23685049.898 5     -2832.976 5     -2207.51145    800637.160 5    608025.91445
  23685047.48845        41.500          17.400  
  20655190.047 7      2103.523 7      1639.11248   -745701.871 7   -558392.34448
  20655184.87548        47.600          36.600  
  20832541.023 7       137.454 7       107.10948   -109873.176 7    -80325.57848
  20832536.71948        49.500          37.600  
  24678070.406 1     -2899.59911                    823433.824 1
                        33.400  
  24698719.234 4      3867.788 4      3013.86345  -1159041.305 4   -697949.32045
  24698714.02045        38.500          15.600  
  22902719.344 6      3691.447 6      2876.45646  -1151514.902 6   -851668.79746
  22902713.78946        44.000          22.800  
  20416662.117 7      1659.116 7      1292.82148   -581956.031 7   -428026.46948
  20416658.22748        50.200          37.000  
  20332277.602 7      1187.473 7       925.30548   -364002.988 7   -281086.30948
  20332273.35948        49.000          41.000  
