     2.11           OBSERVATION DATA    GPS(GPS)            RINEX VERSION / TYPE
convertToRinex 1.14 convertToRINEX OPR  21-Jan-08 20:39 UTC PGM / RUN BY / DATE 
----------------------------------------------------------- COMMENT             
nw1                                                         MARKER NAME         
                                                            MARKER NUMBER       
GNSS Observer       Trimble                                 OBSERVER / AGENCY   
4629118870          R8 Model 2          Version 3.20        REC # / TYPE / VERS 
                    TRM_R8_GNSS                             ANT # / TYPE        
 -1641901.0466 -3664874.5785  4939967.3778                  APPROX POSITION XYZ 
        0.0000        0.0000        0.0000                  ANTENNA: DELTA H/E/N
     1     1     0                                          WAVELENGTH FACT L1/2
     8    C1    D1    D2    L1    L2    P2    S1    S2      # / TYPES OF OBSERV 
  2008     1    20    18    42   20.0000000     GPS         TIME OF FIRST OBS   
  2008     1    20    21    41   30.0000000     GPS         TIME OF LAST OBS    
     0                                                      RCV CLOCK OFFS APPL 
    14                                                      LEAP SECONDS        
    19                                                      # OF SATELLITES     
   G02  1757  1730  1677  1751  1688  1688  1757  1688      PRN / # OF OBS      
   G04   587   580   563   586   567   567   587   567      PRN / # OF OBS      
   G05  1762  1754  1748  1762  1756  1756  1762  1756      PRN / # OF OBS      
   G06  2151  2150  2150  2151  2151  2151  2151  2151      PRN / # OF OBS      
   G10  2151  2134  2134  2151  2151  2151  2151  2151      PRN / # OF OBS      
   G12  1513  1502  1502  1513  1513  1513  1513  1513      PRN / # OF OBS      
   G13  1364  1359  1354  1363  1356  1356  1364  1356      PRN / # OF OBS      
   G15  1025  1004   986  1017   996   997  1025   997      PRN / # OF OBS      
   G16  1287  1282  1263  1287  1268  1268  1287  1268      PRN / # OF OBS      
   G18   982   975   975   982   982   982   982   982      PRN / # OF OBS      
   G21  1983  1975  1971  1983  1979  1979  1983  1979      PRN / # OF OBS      
   G23   425   417   411   422   412   412   425   412      PRN / # OF OBS      
   G24  2151  2136  2136  2151  2151  2151  2151  2151      PRN / # OF OBS      
   G25   497   496   479   497   480   480   497   480      PRN / # OF OBS      
   G26  1067  1060  1036  1067  1043  1043  1067  1043      PRN / # OF OBS      
   G27   262   261   247   262   248   248   262   248      PRN / # OF OBS      
   G29  2151  2148  2148  2151  2151  2151  2151  2151      PRN / # OF OBS      
   G30  2138  2130  2130  2138  2138  2138  2138  2138      PRN / # OF OBS      
   G31  1285  1282  1278  1284  1280  1280  1285  1280      PRN / # OF OBS      
                                                            END OF HEADER       
 08  1 20 18 42 20.0000000  0 11G02G04G05G06G10G12G13G24G29G30G31    0.000349516
  20721058.008 7                                    692893.05517    528274.71158
  20721051.17648        49.900          40.500  
  23576002.375 5                                   1964836.38715   1490830.27357
  23575997.11347        41.700          28.600  
  20695566.547 7                                    509103.10517    390124.78958
  20695561.39548        50.900          40.900  
  23295101.617 6                                  -1925132.59416  -1479257.15657
  23295097.03147        43.000          27.600  
  22389958.852 6                                  -2179820.31616  -1646549.94558
  22389954.44148        45.100          35.300  
  21293942.359 7                                    936613.96917    719758.94959
  21293936.83649        49.100          41.500  
  25027624.211 4                                    -27395.99614     -9320.85956
  25027619.21546        38.100          19.600  
  22782484.555 6                                  -2155011.63716  -1649840.31658
  22782481.28948        42.600          34.100  
  22187124.828 6                                  -1587494.16816  -1218584.98458
  22187119.84048        47.000          37.300  
  20763492.063 7                                   -428296.61717   -317929.17259
  20763487.39549        49.600          41.700  
  24258571.273 5                                   -458569.03515   -352320.77056
  24258565.59846        41.900          26.000  
 08  1 20 18 42 25.0000000  0 11G02G04G05G06G10G12G13G24G29G30G31    0.000348583
  20722207.164 7     -1207.46317      -940.88059    698930.367 7    532979.11349
  20722200.10549        50.300          41.600  
  23578955.914 6     -3104.64116     -2419.20057   1980359.590 6   1502926.27347
  23578951.00447        42.600          26.700  
  20696490.375 7      -971.10217      -756.69858    513958.617 7    393908.28148
  20696485.37548        50.400          40.600  
  23292016.734 6      3242.83516      2526.88857  -1941346.770 6  -1491891.59847
  23292011.80147        44.300          28.900  
  22386780.367 6      3340.40216      2602.91257  -2196522.324 6  -1659564.50447
  22386775.61747        43.600          33.100  
  21295490.289 7     -1627.13717     -1267.89858    944749.652 7    726098.44148
  21295485.24248        48.900          41.200  
  25025786.828 2      1929.82312      1503.75356    -37045.113 2    -16839.62546
  25025782.78146        34.900          19.300  
  22779260.891 6      3386.89516      2639.13757  -2171946.109 6  -1663036.00047
  22779258.73047        43.700          33.700  
  22184453.047 6      2808.32216      2188.30258  -1601535.777 6  -1229526.49648
  22184447.89848        47.000          37.500  
  20763027.969 7       488.34317       380.52958   -430738.332 7   -319831.81648
  20763023.05948        50.000          40.800  
  24257991.609 5       608.62315       474.24556   -461612.152 5   -354691.99246
  24257986.97346        42.400          21.800  
 08  1 20 18 42 30.0000000  0 11G02G04G05G06G10G12G13G24G29G30G31    0.000347641
  20723355.383 7     -1206.768 7      -940.33949    704964.207 7    537680.80949
  20723347.85949        50.800          41.300  
  23581907.102 6     -3102.289 6     -2417.36747   1995871.035 6   1515013.10947
  23581902.59847        42.700          28.600  
  20697414.719 7      -971.243 7      -756.81348    518814.832 7    397692.34848
  20697409.38748        51.400          40.400  
  23288928.930 5      3245.253 5      2528.76547  -1957573.035 5  -1504535.42247
  23288924.21547        41.100          26.900  
  22383602.008 6      3341.350 6      2603.64748  -2213229.074 6  -1672582.73848
  22383596.91448        44.900          34.300  
  21297037.906 7     -1626.787 7     -1267.62848    952883.590 7    732436.58248
  21297033.04748        48.500          40.300  
  25023951.250 4      1930.227 4      1504.07646    -46696.250 4    -24360.00446
  25023946.21946        38.400          19.900  
  22776037.203 6      3388.523 6      2640.40848  -2188888.727 6  -1676238.03948
  22776034.42248        42.700          33.900  
  22181778.625 6      2810.273 6      2189.82048  -1615587.141 6  -1240475.59448
  22181774.22348        46.400          35.900  
  20762563.422 7       487.924 7       380.19648   -433177.953 7   -321732.79748
  20762558.67248        50.200          40.900  
  24257412.977 5       608.612 5       474.24946   -464655.215 5   -357063.23846
  24257407.94146        41.100          22.800  
 08  1 20 18 42 35.0000000  0 11G02G04G05G06G10G12G13G24G29G30G31    0.000346689
  20724502.867 7     -1206.116 7      -939.82748    710994.785 7    542379.94548
  20724495.53548        50.700          40.700  
  23584857.164 5     -3099.922 5     -2415.52147   2011370.645 5   1527090.71547
  23584852.51247        41.600          28.800  
  20698338.977 7      -971.413 7      -756.94748    523671.898 7    401477.08248
  20698333.77348        50.900          40.500  
  23285839.063 5      3247.624 5      2530.61347  -1973811.156 5  -1517188.48847
  23285833.97747        41.800          26.800  
  22380420.906 6      3342.257 6      2604.35248  -2229940.359 6  -1685604.50048
  22380416.68048        45.200          35.500  
  21298585.875 7     -1626.483 7     -1267.38449    961016.004 7    738773.50449
  21298580.60249        48.800          41.700  
  25022114.148 4      1930.618 4      1504.37646    -56349.340 4    -31881.88346
  25022109.36746        37.800          20.400  
  22772811.930 6      3390.117 6      2641.65047  -2205839.313 6  -1689446.28947
  22772808.77047        43.000          33.400  
  22179102.914 6      2812.177 6      2191.30948  -1629648.027 6  -1251432.13748
  22179098.55148        47.300          37.000  
  20762099.602 7       487.470 7       379.84848   -435615.301 7   -323632.03948
  20762094.88348        49.900          41.000  
  24256833.547 5       608.638 5       474.26247   -467698.402 5   -359434.54747
  24256828.34047        42.200          26.400  
 08  1 20 18 42 40.0000000  0 11G02G04G05G06G10G12G13G24G29G30G31    0.000345726
  20725649.969 7     -1205.639 7      -939.46148    717022.980 7    547077.25048
  20725642.76648        49.500          40.200  
  23587804.633 5     -3097.798 5     -2413.86247   2026859.633 5   1539160.02347
  23587799.99647        40.300          26.400  
  20699263.477 7      -971.788 7      -757.23748    528530.840 7    405263.26648
  20699258.37148        49.100          40.100  
  23282746.531 5      3249.826 5      2532.33047  -1990060.285 5  -1529850.13747
  23282741.81347        42.000          26.400  
  22377240.430 6      3342.987 6      2604.92548  -2246655.293 6  -1698629.12548
  22377236.07848        44.000          35.000  
  21300132.844 7     -1626.359 7     -1267.29748    969147.797 7    745109.98848
  21300127.83248        48.200          40.900  
  25020276.648 4      1930.796 4      1504.52346    -66003.320 4    -39404.49646
  25020272.32046        37.900          19.900  
  22769585.281 6      3391.523 6      2642.74447  -2222796.926 6  -1702660.00847
  22769582.04347        43.100          32.900  
  22176425.633 6      2813.889 6      2192.64148  -1643717.473 6  -1262395.34448
  22176421.12548        46.300          35.500  
  20761636.484 7       486.825 7       379.34548   -438049.426 7   -325528.76248
  20761631.70748        49.500          40.300  
  24256254.578 5       608.434 5       474.10346   -470740.574 5   -361805.06346
  24256249.44946        41.000          24.700  
 08  1 20 18 42 45.0000000  0 12G02G04G05G06G10G12G13G23G24G29G30G31    0.000344757
  20726797.133 7                                    723049.680 7    551773.38348
  20726789.82848        49.600          40.700  
  23590749.875 5                                   2042338.758 5   1551221.71147
  23590745.71547        41.400          28.300  
  20700188.953 7                                    533392.504 7    409051.57048
  20700183.65648        50.000          40.800  
  23279652.734 6      3251.833 6      2533.89947  -2006319.453 6  -1542519.63347
  23279648.03147        44.200          29.400  
  22374059.461 6                                  -2263372.883 6  -1711655.82448
  22374054.85248        44.500          35.200  
  21301680.406 7                                    977279.836 7    751446.62149
  21301675.26649        48.700          41.700  
  25018439.648 4      1930.814 4      1504.52346    -75657.391 4    -46927.11346
  25018434.97746        38.800          20.400  
  25251912.195 1                                       995.09411       479.72356
  25251905.72346        33.600          21.500  
  22766357.242 6                                  -2239760.699 6  -1715878.51647
  22766353.84847        43.200          33.500  
  22173747.008 6      2815.423 6      2193.83448  -1657794.586 6  -1273364.51648
  22173742.36748        47.400          38.600  
  20761174.383 7                                   -440479.422 7   -327422.27048
  20761169.08248        49.700          40.300  
  24255675.742 5       608.060 5       473.82247   -473780.875 5   -364174.17247
  24255671.37947        41.800          29.300  
 08  1 20 18 42 50.0000000  0 12G02G04G05G06G10G12G13G23G24G29G30G31    0.000343779
  20727943.711 7     -1205.234 7      -939.14349    729075.852 7    556469.09849
  20727936.69149        50.700          41.500  
  23593694.719 5     -3094.008 5     -2410.91347   2057808.797 5   1563276.27347
  23593689.73847        42.200          28.400  
  20701115.055 7      -973.063 7      -758.23048    538257.816 7    412842.71948
  20701109.60948        51.400          41.000  
  23276556.750 6      3253.653 6      2535.31447  -2022587.719 6  -1555196.20347
  23276552.37147        43.700          30.300  
  22370877.469 6      3343.870 6      2605.61048  -2280092.230 6  -1724683.87548
  22370873.00448        44.100          35.300  
  21303228.344 7     -1626.655 7     -1267.52349    985413.109 7    757784.23849
  21303223.18049        49.100          42.100  
  25016603.047 5      1930.607 5      1504.37546    -85310.426 5    -54448.98846
  25016598.16046        39.300          20.600  
  25251938.422 2       -26.76412       -20.85356      1128.914 2       583.98846
  25251931.25846        34.900          19.300  
  22763127.617 5      3393.784 5      2644.50748  -2256729.617 5  -1729101.05148
  22763124.67648        42.400          34.500  
  22171067.086 7      2816.771 7      2194.88748  -1671878.441 7  -1284338.94948
  22171061.86748        48.200          39.500  
  20760712.484 7       484.990 7       377.91348   -442904.371 7   -329311.83248
  20760707.82448        50.100          40.300  
  24255098.352 5       607.492 5       473.37447   -476818.336 5   -366541.04347
  24255093.18847        41.400          29.400  
 08  1 20 18 42 55.0000000  0 12G02G04G05G06G10G12G13G23G24G29G30G31    0.000342794
  20729090.352 7     -1205.235 7      -939.14449    735102.027 7    561164.81649
  20729083.32049        51.200          41.900  
  23596636.813 5     -3092.359 5     -2409.62747   2073270.594 5   1575324.41047
  23596631.55547        42.100          28.100  
  20702041.484 7      -973.905 7      -758.88649    543127.344 7    416637.14849
  20702036.31649        51.600          41.500  
  23273459.609 6      3255.361 6      2536.64047  -2038864.523 6  -1567879.40247
  23273454.98047        44.300          30.200  
  22367695.867 6      3344.104 6      2605.79448  -2296812.750 6  -1737712.84848
  22367691.64848        44.700          35.400  
  21304776.125 7     -1627.009 7     -1267.79849    993548.152 7    764123.23049
  21304771.03549        49.100          41.800  
  25014765.969 5      1930.327 5      1504.15346    -94962.059 5    -61969.75446
  25014762.02746        39.300          20.600  
  25251962.836 2       -27.485 2       -21.42345      1266.340 2       691.10245
  25251957.96945        34.300          18.600  
  22759897.961 6      3394.714 6      2645.22748  -2273703.188 6  -1742327.18448
  22759894.85948        43.400          33.800  
  22168385.563 7      2818.001 7      2195.84348  -1685968.449 7  -1295318.16448
  22168381.14848        47.900          38.900  
  20760252.250 7       483.870 7       377.04348   -445323.719 7   -331197.04748
  20760247.27748        49.300          40.500  
  24254520.805 5       606.823 5       472.84447   -479852.449 5   -368905.26247
  24254515.55947        41.100          28.300  
 08  1 20 18 43  0.0000000  0 12G02G04G05G06G10G12G13G23G24G29G30G31    0.000341801
  20730237.258 7     -1205.488 7      -939.34049    741129.465 7    565861.51649
  20730230.54349        51.000          41.700  
  23599576.820 5     -3090.914 5     -2408.50747   2088725.164 5   1587366.94547
  23599572.59047        41.400          27.900  
  20702968.844 7      -974.991 7      -759.73449    548002.301 7    420435.82049
  20702963.57449        51.300          41.700  
  23270361.227 6      3256.800 6      2537.76947  -2055148.523 6  -1580568.24647
  23270356.55547        44.200          30.200  
  22364514.352 6      3344.082 6      2605.78048  -2313533.160 6  -1750741.74648
  22364509.59848        43.900          35.600  
  21306324.844 7     -1627.616 7     -1268.27249   1001686.230 7    770464.59049
  21306319.60249        48.800          41.600  
  25012929.852 4      1929.765 4      1503.71246   -104610.886 4    -69488.31346
  25012925.62946        38.400          21.700  
  25251992.063 2       -28.447 2       -22.16245      1408.574 2       801.91045
  25251984.86345        34.200          16.300  
  22756666.852 6      3395.374 6      2645.74848  -2290680.059 6  -1755555.92248
  22756664.16048        43.600          34.300  
  22165703.711 6      2818.995 6      2196.62048  -1700063.422 6  -1306301.26248
  22165698.82048        47.500          38.900  
  20759793.195 7       482.494 7       375.96848   -447736.188 7   -333076.88748
  20759788.39548        50.200          41.000  
  24253943.359 6       605.890 6       472.12647   -482881.898 6   -371265.89147
  24253938.87947        42.700          30.900  
 08  1 20 18 43  5.0000000  0 12G02G04G05G06G10G12G13G23G24G29G30G31    0.000340801
  20731384.758 7     -1205.846 7      -939.62049    747158.695 7    570559.61349
  20731377.80149        50.900          41.500  
  23602516.242 6     -3089.613 6     -2407.49047   2104173.227 6   1599404.39547
  23602511.73847        42.700          29.200  
  20703897.539 7      -976.192 7      -760.67049    552883.262 7    424239.17249
  20703892.84049        51.600          41.700  
  23267260.469 6      3258.148 6      2538.81347  -2071439.262 6  -1593262.30947
  23267256.34447        44.700          30.300  
  22361332.438 6      3343.959 6      2605.68048  -2330252.957 6  -1763770.14548
  22361327.83648        44.200          34.800  
  21307874.227 7     -1628.320 7     -1268.82049   1009827.828 7    776808.69149
  21307869.20749        48.600          41.700  
  25011094.852 3      1929.104 3      1503.19546   -114256.406 3    -77004.28946
  25011090.32446        36.600          21.100  
  25252020.563 3       -29.514 3       -23.00645      1556.145 3       916.94145
  25252013.38745        36.100          14.800  
  22753436.375 6      3395.944 6      2646.19148  -2307659.777 6  -1768786.87548
  22753433.00848        43.600          34.000  
  22163020.336 7      2819.863 7      2197.29648  -1714162.734 7  -1317287.74248
  22163015.48048        47.600          38.900  
  20759335.688 7       481.020 7       374.82348   -450141.289 7   -334951.00048
  20759330.65248        49.500          40.900  
  24253369.164 6       604.859 6       471.31847   -485906.191 6   -373622.48047
  24253363.82847        44.400          31.000  
 08  1 20 18 43 10.0000000  0 12G02G04G05G06G10G12G13G23G24G29G30G31    0.000339796
  20732532.219 7     -1206.277 7      -939.95749    753190.082 7    575259.39849
  20732525.23449        50.200          41.500  
  23605454.992 5     -3088.362 5     -2406.51647   2119615.035 5   1611436.97747
  23605450.49647        41.800          28.000  
  20704827.875 7      -977.485 7      -761.67448    557770.688 7    428047.54348
  20704822.86748        50.900          41.200  
  23264159.430 6      3259.424 6      2539.81147  -2087736.383 6  -1605961.36347
  23264154.66847        44.100          28.800  
  22358150.945 6      3343.747 6      2605.51648  -2346971.691 6  -1776797.72348
  22358146.29748        44.600          34.900  
  21309424.508 7     -1629.115 7     -1269.43849   1017973.402 7    783155.88349
  21309419.10549        48.900          42.000  
  25009259.398 3      1928.367 3      1502.62846   -123898.242 3    -84517.43046
  25009255.64846        37.100          20.400  
  25252048.320 3       -30.699 3       -23.90945      1709.641 3      1036.48445
  25252042.58645        36.900          16.900  
  22750204.000 6      3396.411 6      2646.55248  -2324641.832 6  -1782019.63348
  22750201.16448        43.000          34.000  
  22160336.641 7      2820.652 7      2197.90948  -1728265.992 7  -1328277.28948
  22160331.96148        48.000          39.100  
  20758879.180 7       479.447 7       373.59548   -452538.523 7   -336818.97348
  20758874.40248        50.200          41.000  
  24252794.094 6       603.738 6       470.44347   -488924.883 6   -375974.69547
  24252788.97747        45.000          29.400  
 08  1 20 18 43 15.0000000  0 12G02G04G05G06G10G12G13G23G24G29G30G31    0.000338785
  20733680.469 7     -1206.870 7      -940.41949    759224.430 7    579961.49249
  20733673.30549        50.900          41.300  
  23608392.438 6     -3087.272 6     -2405.66547   2135051.395 6   1623465.30147
  23608388.27747        42.700          29.300  
  20705759.094 7      -978.913 7      -762.79048    562665.254 7    431861.49248
  20705754.35548        51.500          41.200  
  23261057.242 6      3260.528 6      2540.67047  -2104039.023 6  -1618664.71547
  23261052.62947        43.400          29.100  
  22354969.508 6      3343.364 6      2605.21748  -2363688.512 6  -1789823.80948
  22354965.24648        45.000          35.300  
  21310974.883 7     -1630.052 7     -1270.17049   1026123.664 7    789506.73449
  21310970.25049        49.100          42.000  
  25007425.570 3      1927.470 3      1501.91846   -133535.594 3    -92027.02046
  25007421.57446        36.600          20.400  
  25252080.117 4       -31.991 4       -24.93146      1869.598 4      1161.14146
  25252072.80546        38.300          19.000  
  22746972.781 6      3396.745 6      2646.81248  -2341625.559 6  -1795253.69148
  22746969.38748        43.100          34.000  
  22157652.211 7      2821.282 7      2198.40148  -1742372.402 7  -1339269.29348
  22157647.64848        47.600          38.900  
  20758424.555 7       477.729 7       372.25648   -454927.168 7   -338680.25448
  20758419.94548        49.300          41.000  
  24252220.703 6       602.466 6       469.45647   -491937.211 6   -378321.97747
  24252216.07847        44.100          30.000  
 08  1 20 18 43 20.0000000  0 12G02G04G05G06G10G12G13G23G24G29G30G31    0.000337769
  20734829.875 7     -1207.548 7      -940.94748    765262.172 7    584666.22748
  20734822.61348        50.000          41.100  
  23611329.625 6     -3086.266 6     -2404.88047   2150482.727 6   1635489.70347
  23611324.69947        42.600          29.400  
  20706691.961 7      -980.430 7      -763.97148    567567.406 7    435681.34848
  20706686.98848        50.900          41.100  
  23257953.875 6      3261.547 6      2541.46747  -2120346.758 6  -1631372.05147
  23257948.89147        42.700          29.700  
  22351789.313 6      3342.903 6      2604.86048  -2380403.027 6  -1802848.10948
  22351784.64148        45.400          35.300  
  21312527.406 7     -1631.087 7     -1270.97549   1034279.098 7    795861.60949
  21312521.88749        48.900          42.100  
  25005593.039 3      1926.473 3      1501.15046   -143167.957 3    -99532.77046
  25005588.50446        37.200          20.900  
  25252110.938 2       -33.396 2       -26.02445      2036.578 2      1291.26245
  25252104.55945        35.600          17.800  
  22743740.273 6      3396.979 6      2646.99548  -2358610.453 6  -1808488.66848
  22743737.31648        43.600          34.100  
  22154967.555 6      2821.826 6      2198.82548  -1756481.531 6  -1350263.41848
  22154962.50448        46.700          38.900  
  20757971.961 7       475.922 7       370.85048   -457306.777 7   -340534.50448
  20757966.93048        49.900          41.100  
  24251649.570 6       601.108 6       468.39747   -494942.750 6   -380663.96147
  24251643.71947        44.500          30.300  
 08  1 20 18 43 25.0000000  0 12G02G04G05G06G10G12G13G23G24G29G30G31    0.000336746
  20735979.305 7     -1208.446 7      -941.64648    771304.402 7    589374.45748
  20735972.29348        50.700          40.900  
  23614264.727 6     -3085.485 6     -2404.27547   2165910.152 6   1647511.07847
  23614260.64547        43.300          28.900  
  20707626.445 7      -982.168 7      -765.32549    572478.246 7    439507.97349
  20707620.99649        50.800          41.400  
  23254849.977 6      3262.342 6      2542.08347  -2136658.469 6  -1644082.46547
  23254845.02747        43.700          30.000  
  22348609.250 6      3342.217 6      2604.32348  -2397114.113 6  -1815869.72748
  22348604.78148        46.100          35.900  
  21314080.711 7     -1632.330 7     -1271.94649   1042440.746 7    802221.34049
  21314075.44549        49.100          42.000  
  25003761.375 3      1925.264 3      1500.20546   -152794.277 3   -107033.79746
  25003756.97346        36.600          20.900  
  25252144.281 4       -35.014 4       -27.28245      2211.648 4      1427.67245
  25252137.85945        37.900          18.600  
  22740508.297 6      3396.995 6      2647.00948  -2375595.426 6  -1821723.71148
  22740505.11748        44.900          34.700  
  22152282.227 6      2822.146 6      2199.07548  -1770592.262 6  -1361258.79348
  22152277.52748        46.600          38.800  
  20757521.016 7       473.899 7       369.27148   -459676.273 7   -342380.85948
  20757516.12548        49.900          41.200  
  24251078.523 6       599.536 6       467.17047   -497940.430 6   -382999.80947
  24251073.57447        44.200          29.600  
 08  1 20 18 43 30.0000000  0 12G02G04G05G06G10G12G13G23G24G29G30G31    0.000335722
  20737130.258 7     -1209.488 7      -942.45948    777351.844 7    594086.75048
  20737122.77748        51.000          41.200  
  23617199.523 5     -3084.844 5     -2403.77247   2181334.371 5   1659529.93847
  23617195.23447        42.100          28.000  
  20708563.172 7      -984.043 7      -766.78749    577398.461 7    443341.90649
  20708558.18849        51.400          41.500  
  23251745.578 6      3262.991 6      2542.58847  -2152973.426 6  -1656795.40647
  23251740.69947        43.500          29.600  
  22345429.977 6      3341.385 6      2603.67648  -2413821.039 6  -1828888.10548
  22345425.53548        46.200          35.600  
  21315634.625 7     -1633.723 7     -1273.03049   1050609.359 7    808586.48849
  21315629.12149        49.000          41.800  
  25001930.242 4      1923.905 4      1499.15346   -162413.801 4   -114529.56346
  25001925.81346        37.900          20.400  
  25252178.664 2       -36.766 2       -28.65246      2395.480 2      1570.93446
  25252173.01246        34.800          19.600  
  22737275.953 6      3396.867 6      2646.91048  -2392579.762 6  -1834958.26248
  22737273.21148        46.000          34.900  
  22149596.781 7      2822.332 7      2199.21748  -1784703.922 7  -1372254.87948
  22149592.09048        48.500          39.000  
  20757072.250 7       471.721 7       367.57548   -462034.879 7   -344218.73448
  20757067.21548        49.600          40.800  
  24250509.719 6       597.800 6       465.81847   -500929.430 6   -385328.89847
  24250504.28147        43.400          29.400  
 08  1 20 18 43 35.0000000  0 12G02G04G05G06G10G12G13G23G24G29G30G31    0.000334690
  20738282.063 7     -1210.557 7      -943.28949    783404.629 7    598803.19549
  20738274.81349        50.600          41.500  
  23620133.969 6     -3084.230 6     -2403.29547   2196755.523 6   1671546.41447
  23620129.95347        42.500          27.900  
  20709501.039 7      -985.967 7      -768.28449    582328.297 7    447183.32849
  20709495.91449        51.100          41.700  
  23248639.547 6      3263.620 6      2543.07947  -2169291.527 6  -1669510.80147
  23248635.21547        43.200          29.700  
  22342251.273 6      3340.504 6      2602.98748  -2430523.559 6  -1841903.03948
  22342247.08248        45.800          35.200  
  21317190.828 7     -1635.148 7     -1274.14049   1058785.102 7    814957.18849
  21317185.30549        49.500          41.500  
  25000100.930 3      1922.505 3      1498.05746   -172026.324 3   -122019.84846
  25000096.98846        36.900          21.100  
  25252216.398 3       -38.597 3       -30.07545      2588.465 3      1721.30945
  25252210.03145        36.100          18.300  
  22734044.516 6      3396.693 6      2646.76848  -2409563.227 6  -1848192.10248
  22734041.40248        45.800          34.500  
  22146911.398 6      2822.473 6      2199.33148  -1798816.289 6  -1383251.53148
  22146906.30548        47.100          38.600  
  20756625.219 7       469.513 7       365.85548   -464382.445 7   -346048.00848
  20756620.95748        50.000          41.000  
  24249942.398 6       596.055 6       464.46247   -503909.703 6   -387651.21147
  24249937.04347        43.600          29.700  
 08  1 20 18 43 40.0000000  0 12G02G04G05G06G10G12G13G23G24G29G30G31    0.000333658
  20739434.914 7     -1211.763 7      -944.23249    789463.445 7    603524.35549
  20739427.97349        51.100          41.700  
  23623069.375 6     -3083.773 6     -2402.93947   2212174.391 6   1683561.10947
  23623063.91847        42.500          28.200  
  20710441.336 7      -988.013 7      -769.88249    587268.359 7    451032.73849
  20710436.01649        52.000          41.400  
  23245534.063 6      3264.098 6      2543.45447  -2185612.020 6  -1682228.07047
  23245530.00047        42.500          29.700  
  22339074.078 6      3339.494 6      2602.21048  -2447221.027 6  -1854914.09048
  22339069.94548        47.000          35.900  
  21318747.750 7     -1636.708 7     -1275.35549   1066968.641 7    821333.96549
  21318742.49249        47.800          41.300  
  24998273.258 3      1920.982 3      1496.86746   -181631.234 3   -129504.18446
  24998268.98446        37.300          20.400  
  25252253.117 3       -40.526 3       -31.57945      2791.094 3      1879.20345
  25252248.56645        36.600          17.400  
  22730812.945 6      3396.393 6      2646.54348  -2426545.191 6  -1861424.81648
  22730809.62548        45.800          34.500  
  22144225.375 7      2822.477 7      2199.33448  -1812928.672 7  -1394248.20348
  22144220.91448        48.200          38.500  
  20756181.070 7       467.173 7       364.03048   -466718.309 7   -347868.15648
  20756176.08248        48.800          40.800  
  24249377.805 6       594.171 6       462.98447   -506880.559 6   -389966.12947
  24249372.24647        44.200          30.400  
 08  1 20 18 43 45.0000000  0 12G02G04G05G06G10G12G13G23G24G29G30G31    0.000332621
  20740589.156 7     -1213.044 7      -945.23049    795528.664 7    608250.50449
  20740582.03149        51.000          41.400  
  23626002.508 5     -3083.369 5     -2402.63147   2227591.234 5   1695574.26647
  23625997.62547        41.700          27.200  
  20711382.961 7      -990.155 7      -771.54849    592219.133 7    454890.47749
  20711377.78549        51.800          41.400  
  23242428.234 6      3264.476 6      2543.74547  -2201934.398 6  -1694946.79747
  23242423.74247        43.700          29.300  
  22335897.805 6      3338.398 6      2601.34348  -2463913.016 6  -1867920.80548
  22335893.50448        46.400          36.100  
  21320306.523 7     -1638.356 7     -1276.64149   1075160.422 7    827717.17249
  21320301.20349        48.700          41.800  
  24996447.289 5      1919.344 5      1495.59846   -191227.957 5   -136982.17646
  24996442.69146        39.400          20.900  
  25252295.547 2       -42.544 2       -33.15545      3003.813 2      2044.98045
  25252289.21945        34.400          15.600  
  22727581.633 6      3395.990 6      2646.22448  -2443525.141 6  -1874655.93848
  22727578.71548        46.100          35.400  
  22141540.414 7      2822.390 7      2199.26648  -1827040.621 7  -1405244.53148
  22141535.42648        48.200          38.600  
  20755738.875 7       464.735 7       362.13249   -469041.984 7   -349678.81649
  20755734.10549        49.900          41.300  
  24248813.828 6       592.181 6       461.43847   -509841.465 6   -392273.32047
  24248808.73047        44.300          29.400  
 08  1 20 18 43 50.0000000  0 12G02G04G05G06G10G12G13G23G24G29G30G31    0.000331579
  20741744.734 7     -1214.443 7      -946.31749    801600.879 7    612982.09049
  20741737.66849        50.500          41.500  
  23628936.094 5     -3083.094 5     -2402.40647   2243006.707 5   1707586.29347
  23628931.34047        42.100          28.600  
  20712327.508 7      -992.401 7      -773.29948    597181.137 7    458756.97348
  20712322.64548        51.300          41.200  
  23239322.219 6      3264.767 6      2543.97147  -2218258.234 6  -1707666.65247
  23239317.44947        42.800          29.600  
  22332722.305 6      3337.182 6      2600.39948  -2480598.926 6  -1880922.80148
  22332718.13348        46.300          36.200  
  21321866.938 7     -1640.105 7     -1278.00349   1083360.945 7    834107.18849
  21321861.80949        48.700          42.200  
  24994622.367 4      1917.619 4      1494.24446   -200816.051 4   -144453.39546
  24994618.21946        37.500          21.300  
  25252337.211 4       -44.658 4       -34.78945      3227.102 4      2218.92645
  25252331.53945        37.900          18.300  
  22724351.125 6      3395.490 6      2645.83348  -2460502.590 6  -1887885.10548
  22724347.82448        45.400          35.500  
  22138855.375 7      2822.202 7      2199.11548  -1841151.629 7  -1416240.10548
  22138850.69548        47.900          39.000  
  20755299.219 7       462.195 7       360.15249   -471352.961 7   -351479.57849
  20755294.53549        50.200          41.300  
  24248252.867 6       590.096 6       459.81747   -512791.945 6   -394572.40647
  24248247.56647        43.800          29.400  
 08  1 20 18 43 55.0000000  0 12G02G04G05G06G10G12G13G23G24G29G30G31    0.000330538
  20742901.695 7     -1216.012 7      -947.54349    807680.938 7    617719.80549
  20742894.11749        50.300          41.600  
  23631869.039 5     -3082.979 5     -2402.32347   2258421.602 5   1719597.90647
  23631864.82447        41.300          28.900  
  20713273.930 7      -994.804 7      -775.17249    602155.156 7    462632.83249
  20713268.91449        51.400          41.300  
  23236215.469 6      3264.869 6      2544.05547  -2234582.578 6  -1720386.93047
  23236210.85947        43.600          29.700  
  22329548.492 6      3335.808 6      2599.33148  -2497277.965 6  -1893919.45748
  22329544.09448        47.000          35.800  
  21323429.281 7     -1642.019 7     -1279.49449   1091571.039 7    840504.65649
  21323424.43049        48.100          42.400  
  24992799.523 3      1915.700 3      1492.75446   -210394.551 3   -151917.16446
  24992795.66846        36.200          21.100  
  25252381.484 4       -46.968 4       -36.60246      3461.941 4      2401.93446
  25252376.46546        37.700          19.000  
  22721120.813 6      3394.817 6      2645.31348  -2477476.676 6  -1901111.66848
  22721118.01248        45.700          34.900  
  22136170.391 7      2821.833 7      2198.83348  -1855260.797 7  -1427234.27348
  22136165.81348        48.300          39.000  
  20754861.711 7       459.491 7       358.04548   -473650.418 7   -353269.80548
  20754856.83248        49.100          41.200  
  24247693.656 6       587.824 6       458.04847   -515731.066 6   -396862.64547
  24247688.30147        44.400          30.900  
 08  1 20 18 44  0.0000000  0 12G02G04G05G06G10G12G13G23G24G29G30G31    0.000329491
  20744060.094 7     -1217.549 7      -948.74049    813768.684 7    622463.50449
  20744052.86349        50.200          41.700  
  23634802.461 5     -3082.831 5     -2402.20447   2273835.754 5   1731608.92647
  23634798.18447        41.700          27.500  
  20714222.727 7      -997.190 7      -777.03149    607141.105 7    466517.98849
  20714217.91449        51.600          41.500  
  23233108.680 6      3265.020 6      2544.17147  -2250907.680 6  -1733107.78547
  23233104.03947        42.500          29.000  
  22326375.828 6      3334.446 6      2598.26848  -2513950.195 6  -1906910.79748
  22326371.61748        46.800          35.600  
  21324993.664 7     -1643.911 7     -1280.96949   1099790.594 7    846909.50049
  21324988.35949        48.800          41.900  
  24990979.336 3      1913.834 3      1491.30346   -219963.723 3   -159373.68046
  24990974.57846        36.600          19.300  
  25252428.977 4       -49.239 4       -38.37046      3708.137 4      2593.78546
  25252422.82846        37.700          20.400  
  22717891.234 6      3394.163 6      2644.80248  -2494447.492 6  -1914335.67648
  22717888.57048        45.500          35.300  
  22133485.445 7      2821.502 7      2198.57148  -1869368.309 7  -1438227.12948
  22133480.88748        47.900          38.900  
  20754427.141 7       456.809 7       355.95548   -475934.461 7   -355049.57848
  20754422.23848        49.600          40.900  
  24247136.930 6       585.595 6       456.30947   -518659.043 6   -399144.19147
  24247130.93847        43.900          30.200  
 08  1 20 18 44  5.0000000  0 12G02G04G05G06G10G12G13G23G24G29G30G31    0.000328444
  20745219.953 7     -1219.223 7      -950.04349    819864.801 7    627213.71949
  20745212.82049        50.100          41.700  
  23637735.570 5     -3082.810 5     -2402.19047   2289249.805 5   1743619.87547
  23637731.35947        41.300          28.300  
  20715173.945 7      -999.699 7      -778.98549    612139.602 7    470412.91449
  20715168.73049        51.000          41.400  
  23230002.391 5      3265.023 5      2544.17247  -2267232.793 5  -1745828.64547
  23229997.43447        42.400          29.300  
  22323204.820 6      3332.958 6      2597.10948  -2530614.984 6  -1919896.34448
  22323200.25048        47.100          35.200  
  21326560.328 7     -1645.917 7     -1282.53249   1108020.180 7    853322.16049
  21326554.30149        47.600          41.500  
  24989159.563 3      1911.813 3      1489.72746   -229522.789 3   -166822.31646
  24989155.50046        36.400          19.900  
  25252477.492 5       -51.633 5       -40.23046      3966.301 5      2794.93846
  25252472.30546        39.700          20.400  
  22714663.195 6      3393.388 6      2644.19748  -2511414.434 6  -1927556.66048
  22714659.80948        45.000          35.300  
  22130801.641 7      2821.035 7      2198.20948  -1883473.484 7  -1449218.17648
  22130796.75848        47.600          39.100  
  20753995.438 7       453.995 7       353.76348   -478204.434 7   -356818.39148
  20753990.62948        50.000          40.800  
  24246581.305 6       583.254 6       454.48247   -521575.313 6   -401416.60247
  24246575.84447        43.900          30.200  
 08  1 20 18 44 10.0000000  0 12G02G04G05G06G10G12G13G23G24G29G30G31    0.000327394
  20746382.250 7     -1221.056 7      -951.47249    825970.082 7    631971.07849
  20746375.13749        50.200          41.900  
  23640668.805 5     -3082.959 5     -2402.30547   2304664.602 5   1755631.39847
  23640664.77047        42.400          27.400  
  20716127.680 7     -1002.376 7      -781.07149    617151.480 7    474318.27049
  20716122.92249        51.400          41.500  
  23226895.422 5      3264.866 5      2544.05247  -2283557.121 5  -1758548.90647
  23226890.66847        41.900          29.600  
  22320035.141 6      3331.294 6      2595.81448  -2547271.457 6  -1932875.41448
  22320030.44548        47.400          34.900  
  21328127.758 7     -1648.100 7     -1284.23449   1116260.680 7    859743.32849
  21328122.35949        49.600          41.400  
  24987342.641 4      1909.646 4      1488.03946   -239071.020 4   -174262.51246
  24987338.68846        37.600          20.900  
  25252529.203 4       -54.197 4       -42.23246      4237.285 4      3006.09846
  25252523.91046        38.700          20.600  
  22711434.680 6      3392.440 6      2643.45848  -2528376.633 6  -1940773.94948
  22711431.75048        44.200          35.600  
  22128117.813 7      2820.403 7      2197.71648  -1897575.500 7  -1460206.75848
  22128113.18848        48.000          38.700  
  20753566.102 7       451.013 7       351.44048   -480459.500 7   -358575.59048
  20753561.09048        49.500          40.900  
  24246028.992 6       580.735 6       452.51647   -524478.988 6   -403679.18447
  24246023.30947        44.900          30.600  
 08  1 20 18 44 15.0000000  0 12G02G04G05G06G10G12G13G23G24G29G30G31    0.000326342
  20747545.773 7     -1222.973 7      -952.96649    832084.949 7    636735.91049
  20747538.93849        50.900          42.200  
  23643602.750 5     -3083.195 5     -2402.49047   2320080.574 5   1767643.84847
  23643598.10547        42.000          27.500  
  20717083.836 7     -1005.137 7      -783.22449    622177.164 7    478234.39149
  20717079.26649        51.300          41.500  
  23223790.039 5      3264.607 5      2543.85147  -2299880.156 5  -1771268.16047
  23223785.12947        42.200          30.200  
  22316867.320 6      3329.541 6      2594.44748  -2563919.160 6  -1945847.64848
  22316862.91048        46.700          35.500  
  21329698.273 7     -1650.380 7     -1286.00949   1124512.578 7    866173.37549
  21329692.87149        48.800          41.800  
  24985528.461 4      1907.376 4      1486.26246   -248607.898 4   -181693.82046
  24985523.71546        38.100          20.400  
  25252583.406 5       -56.841 5       -44.29246      4521.488 5      3227.55946
  25252578.14546        40.100          19.900  
  22708208.211 6      3391.409 6      2642.65548  -2545333.676 6  -1953987.22348
  22708205.02348        45.600          35.100  
  22125435.258 7      2819.677 7      2197.14848  -1911673.883 7  -1471192.50048
  22125430.61348        48.100          38.300  
  20753140.094 7       447.949 7       349.05148   -482699.246 7   -360320.84448
  20753135.12548        49.600          41.000  
  24245478.266 6       578.113 6       450.48047   -527369.555 6   -405931.58647
  24245472.98047        43.500          30.700  
 08  1 20 18 44 20.0000000  0 12G02G04G05G06G10G12G13G23G24G29G30G31    0.000325291
  20748711.141 7     -1224.909 7      -954.47549    838209.496 7    641508.28549
  20748704.05549        50.300          42.200  
  23646536.469 5     -3083.448 5     -2402.68747   2335497.816 5   1779657.28147
  23646531.43447        42.300          28.400  
  20718042.883 7     -1007.926 7      -785.39548    627216.793 7    482161.36748
  20718038.28148        51.500          41.100  
  23220684.086 5      3264.340 5      2543.64147  -2316201.855 5  -1783986.36347
  23220679.31347        42.400          29.600  
  22313701.188 6      3327.753 6      2593.05448  -2580557.926 6  -1958812.91848
  22313696.63348        46.000          35.500  
  21331270.844 7     -1652.679 7     -1287.80149   1132775.973 7    872612.37949
  21331265.32449        48.800          41.900  
  24983715.055 3      1905.073 3      1484.47446   -258133.266 3   -189116.19146
  24983710.74246        37.000          20.600  
  25252640.500 4       -59.523 4       -46.37646      4819.102 4      3459.43846
  25252634.49246        38.800          20.900  
  22704982.195 6      3390.343 6      2641.82548  -2562285.391 6  -1967196.34848
  22704979.14548        45.600          35.100  
  22122752.789 6      2818.936 6      2196.57548  -1925768.563 6  -1482175.37548
  22122748.37948        47.400          38.800  
  20752716.531 7       444.849 7       346.63548   -484923.492 7   -362054.02048
  20752711.61348        49.700          40.900  
  24244930.719 5       575.471 5       448.41847   -530246.910 5   -408173.67647
  24244925.83647        42.000          30.000  
 08  1 20 18 44 25.0000000  0 12G02G04G05G06G10G12G13G23G24G29G30G31    0.000324236
  20749878.594 7     -1226.948 7      -956.06449    844344.234 7    646288.60549
  20749871.37149        50.800          42.100  
  23649470.539 6     -3083.804 6     -2402.96547   2350916.836 6   1791672.10547
  23649465.98447        42.900          28.000  
  20719004.703 7     -1010.813 7      -787.64548    632270.855 7    486099.59448
  20718999.42648        51.800          41.200  
  23217578.359 5      3263.960 5      2543.34447  -2332521.656 5  -1796703.08247
  23217574.04347        42.300          29.800  
  22310536.969 6      3325.874 6      2591.58748  -2597187.293 6  -1971770.85548
  22310531.77748        46.300          35.100  
  21332845.352 7     -1655.070 7     -1289.66349   1141051.320 7    879060.69549
  21332839.98449        48.400          41.700  
  24981904.313 3      1902.673 3      1482.60246   -267646.629 3   -196529.20346
  24981900.47346        36.700          20.600  
  25252700.164 4       -62.304 4       -48.55046      5130.621 4      3702.18846
  25252693.50446        37.400          21.700  
  22701757.328 6      3389.171 6      2640.91248  -2579231.246 6  -1980400.90648
  22701754.74648        45.600          35.300  
  22120071.672 6      2818.084 6      2195.90848  -1939858.984 6  -1493154.91448
  22120067.23848        47.500          38.300  
  20752296.117 7       441.653 7       344.14548   -487131.758 7   -363774.74648
  20752291.56648        49.100          40.300  
  24244385.992 6       572.725 6       446.27947   -533110.535 6   -410405.07047
  24244381.05547        43.600          29.800  
 08  1 20 18 44 30.0000000  0 12G02G04G05G06G10G12G13G23G24G29G30G31    0.000323181
  20751047.844 7     -1229.110 7      -957.74749    850489.785 7    651077.34049
  20751041.09049        50.800          42.100  
  23652404.781 5     -3084.278 5     -2403.33147   2366338.227 5   1803688.75847
  23652400.63347        42.100          28.500  
  20719969.242 7     -1013.820 7      -789.99049    637339.953 7    490049.54349
  20719964.73049        51.100          41.500  
  23214473.852 6      3263.464 6      2542.95747  -2348838.977 6  -1809417.86747
  23214468.75047        42.500          28.700  
  22307373.922 6      3323.876 6      2590.03448  -2613806.676 6  -1984721.02348
  22307369.43848        47.000          35.900  
  21334422.547 7     -1657.584 7     -1291.62449   1149339.242 7    885518.81649
  21334417.07049        48.400          42.100  
  24980097.219 3      1900.146 3      1480.63746   -277147.359 3   -203932.39146
  24980092.98846        36.200          19.900  
  25252763.656 3       -65.202 3       -50.80546      5456.629 3      3956.21546
  25252755.88746        37.100          21.300  
  22698534.633 6      3387.895 6      2639.91648  -2596170.723 6  -1993600.48448
  22698531.22748        44.600          35.000  
  22117391.648 7      2817.112 7      2195.15148  -1953944.543 7  -1504130.66848
  22117386.65248        47.900          38.600  
  20751879.133 7       438.337 7       341.56248   -489323.445 7   -365482.55548
  20751874.15648        48.400          40.500  
  24243843.992 6       569.866 6       444.05247   -535959.863 6   -412625.32847
  24243838.74647        44.100          30.500  
 08  1 20 18 44 35.0000000  0 12G02G04G05G06G10G12G13G23G24G29G30G31    0.000322126
  20752219.633 7     -1231.282 7      -959.44249    856646.195 7    655874.55149
  20752212.80949        50.700          42.300  
  23655340.148 6     -3084.773 6     -2403.71847   2381762.094 6   1815707.34847
  23655336.00447        42.600          28.100  
  20720936.742 7     -1016.838 7      -792.34149    642424.141 7    494011.24649
  20720931.69949        51.300          41.700  
  23211368.758 6      3262.943 6      2542.55747  -2365153.691 6  -1822130.65247
  23211364.55947        43.000          29.800  
  22304213.469 6      3321.859 6      2588.46048  -2630415.969 6  -1997663.32448
  22304208.48048        46.800          36.000  
  21336001.883 7     -1660.112 7     -1293.59349   1157639.801 7    891986.78149
  21335996.27749        49.300          41.500  
  24978292.039 3      1897.616 3      1478.65646   -286635.438 3   -211325.67246
  24978287.38346        36.200          19.900  
  25252827.906 5       -68.116 5       -53.07146      5797.211 5      4221.57046
  25252820.22346        39.900          20.400  
  22695312.164 6      3386.579 6      2638.89448  -2613103.617 6  -2006794.95348
  22695308.75448        46.000          35.300  
  22114711.836 7      2816.117 7      2194.37948  -1968025.129 7  -1515102.56348
  22114707.13748        47.600          38.700  
  20751465.289 7       435.009 7       338.96748   -491498.488 7   -367177.39148
  20751460.28148        49.200          40.500  
  24243304.625 6       566.983 6       441.80747   -538794.777 6   -414834.36347
  24243299.33647        44.600          31.000  
 08  1 20 18 44 40.0000000  0 12G02G04G05G06G10G12G13G23G24G29G30G31    0.000321072
  20753392.883 7     -1233.452 7      -961.13149    862813.457 7    660680.20749
  20753386.24649        51.100          42.000  
  23658276.039 6     -3085.251 6     -2404.08847   2397188.348 6   1827727.78947
  23658271.12947        42.600          27.500  
  20721907.320 7     -1019.851 7      -794.68849    647523.395 7    497984.68849
  20721902.19949        50.700          41.500  
  23208264.336 5      3262.448 5      2542.16447  -2381465.930 5  -1834841.47347
  23208259.80547        42.200          29.300  
  22301054.563 6      3319.841 6      2586.88848  -2647015.176 6  -2010597.76648
  22301049.75848        46.600          36.100  
  21337584.102 7     -1662.625 7     -1295.55149   1165952.926 7    898464.53549
  21337578.71149        48.900          41.400  
  24976487.992 2      1895.081 2      1476.69346   -296110.844 2   -218709.13746
  24976483.87946        35.500          19.300  
  25252894.477 5       -71.016 5       -55.35146      6152.289 5      4498.32446
  25252887.41046        39.400          20.600  
  22692091.031 6      3385.289 6      2637.88748  -2630030.063 6  -2019984.38748
  22692087.75448        46.600          35.400  
  22112033.664 7      2815.145 7      2193.61948  -1982100.855 7  -1526070.65648
  22112028.95348        48.000          39.300  
  20751054.336 7       431.691 7       336.38548   -493656.945 7   -368859.31648
  20751049.71948        49.900          40.700  
  24242768.102 5       564.123 5       439.57747   -541615.395 5   -417032.24647
  24242762.75047        42.400          30.400  
 08  1 20 18 44 45.0000000  0 12G02G04G05G06G10G12G13G23G24G29G30G31    0.000320015
  20754568.938 7     -1235.786 7      -962.95049    868992.387 7    665494.95749
  20754561.91449        51.000          42.100  
  23661211.672 5     -3085.898 5     -2404.59647   2412617.836 5   1839750.77047
  23661207.64847        42.100          26.700  
  20722880.680 7     -1023.034 7      -797.16949    652638.563 7    501970.53149
  20722875.89549        51.300          41.900  
  23205161.211 5      3261.762 5      2541.63047  -2397774.738 5  -1847549.62547
  23205156.55547        40.900          29.300  
  22297898.563 6      3317.657 6      2585.18648  -2663603.461 6  -2023523.69548
  22297893.38348        46.500          35.300  
  21339168.398 7     -1665.309 7     -1297.64349   1174279.473 7    904952.75049
  21339163.15249        48.800          41.700  
  24974688.000 3      1892.378 3      1474.57846   -305572.734 3   -226082.02746
  24974683.43446        36.400          19.300  
  25252965.164 4       -74.099 4       -57.74046      6522.785 4      4787.02346
  25252957.62546        38.200          21.500  
  22688871.047 6      3383.816 6      2636.73748  -2646949.145 6  -2033168.07048
  22688867.80948        45.600          35.100  
  22109355.938 7      2813.984 7      2192.71648  -1996170.777 7  -1537034.23448
  22109351.43448        47.800          39.100  
  20750646.953 7       428.194 7       333.65648   -495797.914 7   -370527.59848
  20750642.19948        49.000          40.400  
  24242234.148 5       561.077 5       437.20347   -544420.781 5   -419218.26247
  24242228.36347        41.600          29.600  
 08  1 20 18 44 50.0000000  0 12G02G04G05G06G10G12G13G23G24G29G30G31    0.000318958
  20755746.938 7     -1238.097 7      -964.75049    875182.871 7    670318.70749
  20755739.71949        51.100          41.900  
  23664148.148 5     -3086.522 5     -2405.08247   2428050.445 5   1851776.18047
  23664144.10247        41.600          27.400  
  20723856.703 7     -1026.190 7      -799.62949    657769.512 7    505968.67649
  20723852.36349        51.200          41.800  
  23202058.633 5      3261.105 5      2541.12247  -2414080.262 5  -1860255.23447
  23202053.42247        41.100          28.300  
  22294743.648 6      3315.478 6      2583.48848  -2680180.852 6  -2036441.13748
  22294738.81648        45.700          35.200  
  21340755.641 7     -1667.972 7     -1299.71749   1182619.332 7    911451.33649
  21340750.09849        48.800          42.100  
  24972890.359 3      1889.686 3      1472.48246   -315021.164 3   -233444.43846
  24972885.41846        36.600          19.000  
  25253037.633 3       -77.152 3       -60.11846      6908.543 3      5087.61346
  25253031.35546        37.200          21.700  
  22685653.414 6      3382.380 6      2635.62048  -2663861.043 6  -2046346.16848
  22685650.26248        46.900          34.900  
  22106679.672 7      2812.856 7      2191.83548  -2010235.059 7  -1547993.41048
  22106675.25848        47.900          38.900  
  20750243.109 7       424.724 7       330.95348   -497921.535 7   -372182.36348
  20750237.85248        49.800          40.500  
  24241703.484 6       558.066 6       434.85947   -547211.113 6   -421392.55547
  24241697.58247        44.100          30.300  
 08  1 20 18 44 55.0000000  0 12G02G04G05G06G10G12G13G23G24G29G30G31    0.000317904
  20756927.117 7     -1240.477 7      -966.60449    881385.254 7    675151.72749
  20756920.11749        50.600          41.600  
  23667086.227 6     -3087.217 6     -2405.62047   2443486.531 6   1863804.28147
  23667081.45347        42.600          27.100  
  20724836.352 7     -1029.420 7      -802.14549    662916.609 7    509979.39849
  20724831.39849        51.700          41.800  
  23198956.117 5      3260.361 5      2540.54347  -2430382.066 5  -1872957.94947
  23198950.92647        42.000          29.200  
  22291590.938 6      3313.225 6      2581.73348  -2696746.977 6  -2049349.80148
  22291585.97348        46.300          35.200  
  21342345.188 7     -1670.706 7     -1301.84949   1190972.863 7    917960.58249
  21342339.89149        48.000          42.200  
  24971094.453 4      1886.923 4      1470.33346   -324455.777 4   -240796.10246
  24971090.45346        37.400          19.300  
  25253115.336 4       -80.276 4       -62.55046      7309.922 4      5400.36346
  25253108.29346        38.100          21.500  
  22682436.586 6      3380.851 6      2634.42948  -2680765.297 6  -2059518.31348
  22682432.89148        45.500          35.000  
  22104004.688 7      2811.643 7      2190.89148  -2024293.273 7  -1558947.86748
  22103999.97348        47.700          39.100  
  20749842.461 7       421.176 7       328.19048   -500027.414 7   -373823.31348
  20749837.39848        49.500          40.400  
  24241174.516 6       554.978 6       432.44847   -549986.004 6   -423554.79747
  24241169.24647        44.700          29.700  
 08  1 20 18 45  0.0000000  0 12G02G04G05G06G10G12G13G23G24G29G30G31    0.000316847
  20758109.461 7     -1242.955 7      -968.53749    887600.027 7    679994.41049
  20758103.05949        51.000          41.300  
  23670023.867 5     -3088.009 5     -2406.24447   2458926.578 5   1875835.50047
  23670020.09847        41.800          27.400  
  20725819.156 7     -1032.740 7      -804.73149    668080.309 7    514003.05549
  20725814.04749        51.700          41.700  
  23195855.148 5      3259.548 5      2539.90547  -2446679.805 5  -1885657.47347
  23195849.64147        41.700          29.400  
  22288440.844 6      3310.882 6      2579.90848  -2713301.387 6  -2062249.34048
  22288436.11748        45.300          35.100  
  21343937.438 6     -1673.533 6     -1304.05149   1199340.527 6    924480.83649
  21343932.27049        47.000          41.900  
  24969301.352 2      1884.064 2      1468.09846   -333876.098 2   -248136.59446
  24969298.08646        35.000          19.600  
  25253194.508 5       -83.492 5       -65.05946      7727.383 5      5725.65646
  25253187.81346        39.700          22.200  
  22679220.867 6      3379.226 6      2633.16248  -2697661.426 6  -2072684.12148
  22679217.87148        44.900          35.900  
  22101330.617 7      2810.337 7      2189.87148  -2038344.957 7  -1569897.22348
  22101325.72348        47.600          38.900  
  20749445.141 7       417.541 7       325.35648   -502115.121 7   -375450.09448
  20749440.23448        48.100          40.500  
  24240649.508 6       551.789 6       429.96747   -552744.949 6   -425704.63347
  24240644.37547        44.500          30.100  
 08  1 20 18 45  5.0000000  0 12G02G04G05G06G10G12G13G23G24G29G30G31    0.000315792
  20759295.047 7     -1245.501 7      -970.52048    893827.531 7    684847.01248
  20759288.12548        51.200          41.200  
  23672962.656 5     -3088.879 5     -2406.91747   2474370.973 5   1887870.08247
  23672958.82847        41.900          27.900  
  20726804.906 7     -1036.150 7      -807.38949    673261.059 7    518040.00049
  20726799.93449        51.500          41.500  
  23192754.320 5      3258.619 5      2539.18547  -2462972.898 5  -1898353.39847
  23192749.25047        41.600          29.300  
  22285293.117 6      3308.448 6      2578.01048  -2729843.625 6  -2075139.39148
  22285288.39148        45.500          35.300  
  21345532.461 7     -1676.436 7     -1306.31349   1207722.707 7    931012.40249
  21345527.27349        48.300          41.700  
  24967512.000 3      1881.105 3      1465.80246   -343281.625 3   -255465.60546
  24967507.97346        36.300          19.000  
  25253276.664 4       -86.795 4       -67.63446      8161.355 4      6063.82446
  25253270.69946        38.600          22.500  
  22676007.750 6      3377.534 6      2631.84148  -2714549.094 6  -2085843.32848
  22676004.25048        44.700          35.000  
  22098657.945 6      2808.950 6      2188.79348  -2052389.707 6  -1580841.18848
  22098653.37548        47.100          39.000  
  20749051.203 7       413.816 7       322.45548   -504184.203 7   -377062.37148
  20749046.57448        49.100          40.300  
  24240127.617 6       548.529 6       427.42347   -555487.594 6   -427841.75047
  24240122.50847        43.900          28.900  
 08  1 20 18 45 10.0000000  0 12G02G04G05G06G10G12G13G23G24G29G30G31    0.000314737
  20760482.078 7     -1247.951 7      -972.42949    900067.285 7    689709.15649
  20760475.13349        50.700          41.900  
  23675902.352 5     -3089.628 5     -2407.50147   2489819.113 5   1899907.58647
  23675899.08247        41.700          27.500  
  20727793.891 7     -1039.450 7      -809.96049    678458.309 7    522089.80149
  20727788.99649        51.600          41.700  
  23189654.844 5      3257.816 5      2538.55547  -2479261.977 5  -1911046.17647
  23189649.57447        42.000          29.600  
  22282147.086 6      3306.109 6      2576.18848  -2746374.168 6  -2088020.33248
  22282142.98048        45.000          35.700  
  21347130.102 7     -1679.248 7     -1308.50449   1216118.945 7    937554.92249
  21347125.14149        49.000          41.800  
