     2.11           OBSERVATION DATA    GPS(GPS)            RINEX VERSION / TYPE
convertToRinex 1.14 convertToRINEX OPR  16-Jan-08 21:57 UTC PGM / RUN BY / DATE 
----------------------------------------------------------- COMMENT             
nw2                                                         MARKER NAME         
                                                            MARKER NUMBER       
GNSS Observer       Trimble                                 OBSERVER / AGENCY   
4651126518          R8 Model 2          Version 3.25        REC # / TYPE / VERS 
                    TRM_R8_GNSS                             ANT # / TYPE        
 -1641897.8924 -3664875.6298  4939973.2259                  APPROX POSITION XYZ 
        1.7710        0.0000        0.0000                  ANTENNA: DELTA H/E/N
     1     1     0                                          WAVELENGTH FACT L1/2
     8    C1    D1    D2    L1    L2    P2    S1    S2      # / TYPES OF OBSERV 
  2008     1    16    16    37   45.0000000     GPS         TIME OF FIRST OBS   
  2008     1    16    17    55   45.0000000     GPS         TIME OF LAST OBS    
     0                                                      RCV CLOCK OFFS APPL 
    14                                                      LEAP SECONDS        
    15                                                      # OF SATELLITES     
   G01   202   199   199   202   202   202   202   202      PRN / # OF OBS      
   G02   313   312   312   313   313   313   313   313      PRN / # OF OBS      
   G04   313   305   305   313   313   313   313   313      PRN / # OF OBS      
   G05   313   308   308   313   313   313   313   313      PRN / # OF OBS      
   G06     9     8     8     9     9     9     9     9      PRN / # OF OBS      
   G09   313   312   312   313   313   313   313   313      PRN / # OF OBS      
   G10    25    24    22    25    23    23    25    23      PRN / # OF OBS      
   G12   313   305   305   313   313   313   313   313      PRN / # OF OBS      
   G14   116   114    89   116    92    92   116    92      PRN / # OF OBS      
   G17   313   306   306   313   313   313   313   313      PRN / # OF OBS      
   G20   242   237   234   242   239   239   242   239      PRN / # OF OBS      
   G28    12    11    11    12    12    12    12    12      PRN / # OF OBS      
   G29   127   126   126   127   127   127   127   127      PRN / # OF OBS      
   G30   313   310   310   313   313   313   313   313      PRN / # OF OBS      
   G31    33    32    32    33    33    33    33    33      PRN / # OF OBS      
                                                            END OF HEADER       
 08  1 16 16 38  0.0000000  0 11G01G02G04G05G09G12G14G17G20G28G30    0.000464277
  25451981.734 2      1146.64812       893.49055   1037567.441 2    827517.60945
  25451978.73045        35.000          16.300  
  22121638.063 6      3363.09616      2620.59457  -1620833.500 6  -1234569.14847
  22121631.36747        46.900          33.600  
  20700812.625 7       942.43017       734.36057    456545.934 7    369291.62547
  20700807.95347        48.700          33.100  
  22859017.422 6      3563.19116      2776.51356  -1618964.590 6  -1235379.20346
  22859011.68846        43.500          24.800  
  21573229.758 7     -1711.92117     -1333.96557   2981303.551 7   2314906.70347
  21573224.79747        47.600          33.700  
  22123046.023 6      2825.89016      2201.99258  -1126104.367 6   -845068.66448
  22123040.47748        46.700          35.900  
  25104559.070 3      -452.91113      -352.91755   1822669.039 3   1421390.69145
  25104553.93045        36.400          17.800  
  22374977.180 6     -2372.25616     -1848.51157   3800515.711 6   2935852.29347
  22374972.16847        47.300          32.400  
  24171598.313 5      -212.67715      -165.72556   1592248.453 5   1243272.82846
  24171594.20746        41.200          19.900  
  25048571.148 2     -3121.26612     -2432.15355   4400354.629 2   3407767.27345
  25048568.37945        34.200          14.800  
  24719415.930 3      4024.08913      3135.65755   -665558.961 3   -340565.55945
  24719412.10245        36.100          15.600  
 08  1 16 16 38 15.0000000  0 11G01G02G04G05G09G12G14G17G20G28G30    0.000461252
  25448719.859 2      1142.623 2       890.35745   1020428.098 2    814162.25445
  25448717.52745        35.400          16.300  
  22112040.344 6      3362.283 6      2619.96047  -1671267.750 6  -1273868.55147
  22112033.84847        46.700          33.100  
  20698138.570 7       936.866 7       730.02647    442492.949 7    358341.23847
  20698133.54347        48.400          33.000  
  22848841.961 5      3564.465 5      2777.50346  -1672431.559 5  -1277041.75046
  22848837.35246        41.800          23.000  
  21578130.773 6     -1716.864 6     -1337.81547   3007056.508 6   2334973.93047
  21578125.60547        46.800          33.500  
  22114979.383 6      2826.073 6      2202.13448  -1168495.453 6   -878100.67648
  22114974.00848        46.500          35.600  
  25105863.711 3      -457.053 3      -356.14546   1829524.840 3   1426732.86346
  25105859.32046        36.600          19.300  
  22381744.180 6     -2370.826 6     -1847.39747   3836078.102 6   2963563.25047
  22381739.50447        46.000          32.400  
  24172220.211 6      -217.587 6      -169.54646   1595512.262 6   1245816.02046
  24172214.89546        42.600          21.100  
  25057472.711 2     -3118.315 2     -2429.85245   4447129.355 2   3444215.05145
  25057469.66445        35.000          16.300  
  24707920.680 5      4027.848 5      3138.58246   -725976.680 5   -387644.28946
  24707914.87146        39.700          19.600  
 08  1 16 16 38 30.0000000  0 11G01G02G04G05G09G12G14G17G20G28G30    0.000458183
  25445471.016 3      1138.687 3       887.29045   1003347.789 3    800852.90245
  25445467.30945        36.400          16.300  
  22102445.563 6      3361.556 6      2619.39447  -1721691.090 6  -1313159.46147
  22102438.78147        46.700          33.600  
  20695479.750 7       931.406 7       725.77147    428521.859 7    347454.68047
  20695474.97347        49.000          33.400  
  22838663.750 6      3565.814 6      2778.55846  -1725918.766 6  -1318720.11346
  22838659.02046        42.500          22.600  
  21583044.500 6     -1721.682 6     -1341.57047   3032881.738 6   2355097.47747
  21583040.17647        46.800          33.100  
  22106912.289 6      2826.350 6      2202.35148  -1210890.699 6   -911135.93848
  22106906.61348        46.900          34.700  
  25107180.383 3      -461.091 3      -359.29246   1836441.211 3   1432122.24646
  25107175.19946        37.000          19.300  
  22388507.352 6     -2369.285 6     -1846.19647   3871617.379 6   2991256.19547
  22388502.46547        46.400          32.800  
  24172855.008 5      -222.397 5      -173.29646   1598848.215 5   1248415.45746
  24172849.89846        40.200          21.100  
  25066364.813 1     -3115.261 1     -2427.47945   4493858.277 1   3480627.23045
  25066361.94945        33.100          15.600  
  24696411.625 4      4031.702 4      3141.58646   -786452.207 4   -434768.07446
  24696406.91446        38.800          19.300  
 08  1 16 16 38 45.0000000  0 11G01G02G04G05G09G12G14G17G20G28G30    0.000455065
  25442232.195 4      1134.723 4       884.19845    986326.945 4    787589.93445
  25442228.53945        37.500          17.800  
  22092852.102 6      3360.787 6      2618.79547  -1772102.895 6  -1352441.38347
  22092845.88747        46.300          32.600  
  20692836.891 7       925.922 7       721.49847    414633.027 7    336632.21147
  20692832.13347        48.900          33.600  
  22828482.281 5      3567.126 5      2779.57946  -1779425.652 5  -1360413.80546
  22828476.87146        42.300          25.300  
  21587972.906 6     -1726.493 6     -1345.31847   3058779.129 6   2375277.25047
  21587968.25447        46.700          33.700  
  22098843.813 6      2826.584 6      2202.53348  -1253289.461 6   -944173.93448
  22098838.10948        46.100          35.000  
  25108508.039 3      -465.149 3      -362.45645   1843418.449 3   1437559.08245
  25108502.77745        36.400          17.800  
  22395265.961 6     -2367.748 6     -1844.99847   3907133.598 6   3018931.16447
  22395260.83247        46.100          32.500  
  24173504.539 5      -227.218 5      -177.05246   1602256.484 5   1251071.24246
  24173498.44146        40.900          20.400  
  25075248.242 2     -3112.218 2     -2425.09745   4540541.539 2   3517003.68845
  25075245.47345        34.000          15.600  
  24684892.000 4      4035.522 4      3144.56246   -846985.043 4   -481936.49646
  24684887.57046        37.700          19.000  
 08  1 16 16 39  0.0000000  0 11G01G02G04G05G09G12G14G17G20G28G30    0.000451900
  25439004.773 3      1130.784 3       881.13345    969365.191 3    774372.93845
  25439001.34445        36.100          18.300  
  22083261.125 6      3360.038 6      2618.21147  -1822503.461 6  -1391714.54347
  22083254.71547        46.600          32.900  
  20690209.813 7       920.462 7       717.24248    400826.098 7    325873.57448
  20690205.02348        49.200          34.000  
  22818296.430 5      3568.453 5      2780.61146  -1832952.445 5  -1402122.96946
  22818291.19946        41.700          24.200  
  21592914.492 6     -1731.249 6     -1349.02447   3084747.863 6   2395512.61347
  21592909.84047        47.400          33.300  
  22090774.719 6      2826.840 6      2202.73348  -1295692.063 6   -977214.92648
  22090769.25448        46.100          34.600  
  25109846.586 4      -469.161 4      -365.57745   1850455.859 4   1443042.74245
  25109842.32445        37.500          18.600  
  22402020.336 6     -2366.166 6     -1843.76547   3942626.090 6   3046587.64547
  22402015.05547        46.000          31.700  
  24174164.883 5      -231.991 5      -180.77746   1605736.355 5   1253782.89546
  24174160.61346        40.600          20.900  
  25084123.203 2     -3109.137 2     -2422.70645   4587178.598 2   3553344.27745
  25084119.86345        34.000          15.600  
  24673362.828 5      4039.362 5      3147.55446   -907575.473 5   -529149.80946
  24673357.04746        40.600          19.000  
 08  1 16 16 39 15.0000000  0 11G01G02G04G05G09G12G14G17G20G28G30    0.000448690
  25435787.141 3      1126.818 3       878.03745    952462.918 3    761202.38345
  25435784.57445        36.300          17.800  
  22073672.969 6      3359.249 6      2617.59647  -1872892.195 6  -1430978.48847
  22073666.18447        46.600          33.600  
  20687597.758 7       914.980 7       712.97148    387101.395 7    315179.00448
  20687593.02048        48.500          34.000  
  22808107.070 6      3569.743 6      2781.61846  -1886498.598 6  -1443847.23846
  22808101.79346        42.500          25.600  
  21597869.695 6     -1736.010 6     -1352.73448   3110788.020 6   2415803.62948
  21597865.00448        47.200          34.000  
  22082704.844 6      2827.063 6      2202.90748  -1338098.016 6  -1010258.52748
  22082700.23848        46.200          35.000  
  25111197.594 4      -473.174 4      -368.70645   1857553.477 4   1448573.33645
  25111192.97345        37.800          17.400  
  22408769.117 6     -2364.603 6     -1842.54847   3978095.129 6   3074225.86347
  22408764.28147        46.800          31.900  
  24174840.766 5      -236.804 5      -184.52246   1609288.422 5   1256550.72746
  24174837.28946        40.900          21.300  
  25092989.422 2     -3106.046 2     -2420.29745   4633769.285 2   3589648.72745
  25092986.39145        34.600          14.800  
  24661822.445 4      4043.148 4      3150.50746   -968222.688 4   -576407.41846
  24661816.39846        38.500          19.900  
 08  1 16 16 39 30.0000000  0 11G01G02G04G05G09G12G14G17G20G28G30    0.000445433
  25432582.891 4      1122.977 4       875.04545    935618.262 4    748076.70345
  25432579.13345        37.500          18.300  
  22064085.906 6      3358.575 6      2617.07148  -1923270.816 6  -1470234.54748
  22064079.54748        46.400          34.200  
  20685001.422 7       909.639 7       708.81048    373456.809 7    304546.85248
  20684996.63348        49.500          33.800  
  22797912.789 5      3571.142 5      2782.71046  -1940065.734 5  -1485587.89546
  22797908.27746        41.600          24.700  
  21602838.742 6     -1740.616 6     -1356.32448   3136897.254 6   2436148.48848
  21602833.77348        47.400          33.900  
  22074634.523 6      2827.405 6      2203.17248  -1380509.086 6  -1043306.11348
  22074629.66448        46.100          35.000  
  25112559.578 3      -477.048 3      -371.72945   1864709.203 3   1454149.26645
  25112554.10945        36.100          18.600  
  22415513.727 6     -2362.893 6     -1841.21447   4013538.527 6   3101844.07847
  22415509.16847        46.800          33.000  
  24175529.500 5      -241.475 5      -188.16346   1612910.543 5   1259373.17646
  24175525.77346        39.900          20.600  
  25101846.430 2     -3102.822 2     -2417.77645   4680311.613 2   3625915.37145
  25101843.05945        34.500          16.900  
  24650269.633 4      4047.070 4      3153.55945  -1028928.730 4   -623710.79745
  24650264.74245        38.400          18.600  
 08  1 16 16 39 45.0000000  0 11G01G02G04G05G09G12G14G17G20G28G30    0.000442125
  25429388.594 4      1119.028 4       871.96845    918832.836 4    734997.18445
  25429385.03545        37.700          17.800  
  22054501.563 6      3357.783 6      2616.45348  -1973637.563 6  -1509481.34848
  22054495.39848        46.300          34.300  
  20682420.492 7       904.191 7       704.56448    359893.945 7    293978.39848
  20682415.60948        48.800          33.900  
  22787715.906 5      3572.430 5      2783.71146  -1993652.180 5  -1527343.56346
  22787711.56646        41.400          26.100  
  21607820.055 6     -1745.301 6     -1359.97448   3163076.766 6   2456548.09848
  21607815.34848        47.000          34.000  
  22066563.500 6      2827.625 6      2203.34448  -1422923.457 6  -1076356.27048
  22066558.07848        45.200          34.900  
  25113932.563 3      -481.011 3      -374.81045   1871924.371 3   1459771.42245
  25113927.39145        36.800          18.300  
  22422254.336 6     -2361.276 6     -1839.95547   4048957.660 6   3129443.40647
  22422249.21547        46.800          32.600  
  24176232.898 4      -246.235 4      -191.87246   1616604.070 4   1262251.26246
  24176228.51246        38.900          20.900  
  25110693.594 1     -3099.678 1     -2415.33245   4726806.785 1   3662145.35245
  25110690.73445        33.400          16.300  
  24638707.711 5      4050.864 5      3156.52046  -1089691.695 5   -671058.59046
  24638702.68446        41.300          19.600  
 08  1 16 16 40  0.0000000  0 11G01G02G04G05G09G12G14G17G20G28G30    0.000438772
  25426206.305 4      1115.104 4       868.91645    902106.270 4    721963.43845
  25426201.18445        38.600          18.600  
  22044919.281 6      3356.996 6      2615.84148  -2023992.504 6  -1548718.96148
  22044912.90248        47.500          34.500  
  20679854.813 7       898.763 7       700.33448    346412.508 7    283473.38748
  20679850.21548        48.800          34.200  
  22777515.703 5      3573.723 5      2784.71846  -2047258.023 5  -1569114.33246
  22777510.90646        41.600          24.600  
  21612815.141 6     -1749.944 6     -1363.59248   3189325.926 6   2477001.98048
  21612810.32048        47.300          34.000  
  22058491.422 6      2827.851 6      2203.52148  -1465341.227 6  -1109409.07848
  22058486.40648        46.200          35.100  
  25115316.734 2      -484.934 2      -377.87245   1879198.375 2   1465439.49645
  25115311.84445        34.400          17.400  
  22428989.563 6     -2359.620 6     -1838.66447   4084351.957 6   3157023.37147
  22428984.88747        46.900          32.600  
  24176949.203 5      -250.979 5      -195.56546   1620368.754 5   1265184.73846
  24176944.41446        39.400          20.900  
  25119532.406 2     -3096.509 2     -2412.85945   4773254.418 2   3698338.23445
  25119529.02745        35.000          16.900  
  24627133.117 4      4054.678 4      3159.48946  -1150511.863 4   -718450.93046
  24627129.05146        37.800          19.000  
 08  1 16 16 40 15.0000000  0 11G01G02G04G05G09G12G14G17G20G28G30    0.000435373
  25423034.375 3      1110.987 3       865.70445    885441.461 3    708977.87545
  25423030.41445        37.300          18.600  
  22035339.891 6      3356.004 6      2615.06848  -2074332.570 6  -1587944.98048
  22035333.37548        47.200          34.200  
  20677305.711 7       893.152 7       695.96248    333015.234 7    273033.95348
  20677301.12548        48.500          34.000  
  22767311.125 5      3574.809 5      2785.56446  -2100880.156 5  -1610897.79746
  22767306.27046        41.700          24.700  
  21617824.055 7     -1754.746 7     -1367.33448   3215647.109 7   2497511.98448
  21617819.07048        47.800          34.200  
  22050419.781 6      2827.886 6      2203.54848  -1507759.516 6  -1142462.29748
  22050414.43448        45.100          34.800  
  25116712.422 2      -489.033 2      -381.06345   1886533.867 2   1471155.44145
  25116707.46545        35.200          16.300  
  22435720.750 6     -2358.146 6     -1837.51647   4119724.152 6   3184586.11747
  22435715.85247        46.700          33.000  
  24177679.883 5      -255.893 5      -199.39846   1624207.156 5   1268175.71546
  24177675.12546        40.200          21.300  
  25128362.852 2     -3093.514 2     -2410.53145   4819657.129 2   3734496.19945
  25128359.19945        34.300          16.900  
  24615550.656 5      4058.288 5      3162.30246  -1211386.176 5   -765885.46546
  24615544.80146        41.100          19.600  
 08  1 16 16 40 30.0000000  0 11G01G02G04G05G09G12G14G17G20G28G30    0.000431929
  25419875.188 3      1106.979 3       862.58046    868836.773 3    696039.17246
  25419871.19146        36.400          19.000  
  22025763.148 7      3355.114 7      2614.37448  -2124659.277 7  -1627160.59048
  22025756.52748        47.700          34.400  
  20674772.063 7       887.652 7       691.67848    319700.449 7    262658.78948
  20674767.15248        49.100          34.100  
  22757103.891 5      3575.998 5      2786.49246  -2154520.121 5  -1652695.18446
  22757099.23446        42.200          25.600  
  21622845.703 6     -1759.403 6     -1370.96448   3242038.156 6   2518076.44148
  21622841.43448        46.800          33.800  
  22042347.445 6      2828.019 6      2203.65148  -1550179.805 6  -1175517.06648
  22042342.18848        46.200          35.200  
  25118120.125 3      -493.011 3      -384.16445   1893929.039 3   1476917.90245
  25118114.93845        37.100          16.900  
  22442446.602 6     -2356.536 6     -1836.26148   4155072.199 6   3212130.03948
  22442442.46148        47.000          33.800  
  24178424.359 5      -260.690 5      -203.13446   1628117.508 5   1271222.72746
  24178419.12946        41.000          21.800  
  25137182.898 1     -3090.390 1     -2408.09845   4866012.973 1   3770617.67645
  25137180.81345        33.700          16.300  
  24603955.656 5      4061.992 5      3165.18946  -1272316.059 5   -813363.30146
  24603950.78146        40.300          20.100  
 08  1 16 16 40 45.0000000  0 10G01G02G04G05G09G12G14G17G20G30    0.000428436
  25416726.531 3                                    852292.926 3    683147.80945
  25416722.81645        36.900          17.800  
  22016189.031 7      3354.161 7      2613.63148  -2174971.695 7  -1666365.05548
  22016182.83648        47.800          34.200  
  20672254.195 7                                    306468.766 7    252348.38348
  20672249.23448        49.400          34.600  
  22746893.961 5                                  -2208176.984 5  -1694505.74246
  22746888.64546        42.000          25.900  
  21627881.156 6     -1764.095 6     -1374.61948   3268499.582 6   2538695.71948
  21627876.60548        47.200          34.000  
  22034274.836 6                                  -1592601.191 6  -1208572.68448
  22034269.53148        47.100          35.000  
  25119538.109 2                                   1901384.227 2   1482727.12545
  25119533.45345        35.000          14.800  
  22449169.141 6                                   4190396.602 6   3239655.54747
  22449164.18047        46.700          32.800  
  24179182.016 5                                   1632100.406 5   1274326.31346
  24179176.87546        40.900          21.700  
  24592350.422 5                                  -1333300.836 5   -860883.89846
  24592345.58646        39.800          20.100  
 08  1 16 16 41  0.0000000  0 10G01G02G04G05G09G12G14G17G20G30    0.000424900
  25413590.023 4      1098.723 4       856.14845    835812.082 4    670305.58245
  25413586.92245        38.300          18.600  
  22006618.336 7      3353.055 7      2612.77048  -2225267.520 7  -1705556.60548
  22006611.68448        49.000          35.800  
  20669752.039 7       876.439 7       682.94048    293322.180 7    242104.28948
  20669747.73448        50.900          35.500  
  22736680.305 6      3578.099 6      2788.12847  -2261848.469 6  -1736327.66447
  22736674.93047        43.200          27.200  
  21632930.313 7     -1768.895 7     -1378.36048   3295033.008 7   2559371.11348
  21632926.64848        48.400          34.200  
  22026202.469 6      2828.011 6      2203.64548  -1635021.355 6  -1241627.35548
  22026197.21148        47.200          36.000  
  25120968.547 3      -501.147 3      -390.50745   1908901.426 3   1488584.72345
  25120963.81645        36.300          17.400  
  22455886.914 6     -2353.504 6     -1833.89848   4225699.156 6   3267164.02048
  22455882.27748        47.300          34.000  
  24179954.094 5      -270.487 5      -210.76846   1636157.711 5   1277487.82846
  24179949.14846        42.000          22.300  
  24580735.359 5      4069.157 5      3170.77246  -1394338.199 5   -908445.48046
  24580730.63746        40.600          22.000  
 08  1 16 16 41 15.0000000  0 10G01G02G04G05G09G12G14G17G20G30    0.000421316
  25410466.102 5      1094.735 5       853.03846    819391.063 5    657510.01646
  25410461.31346        39.200          20.400  
  21997049.852 7      3352.142 7      2612.05948  -2275549.656 7  -1744737.48448
  21997043.44148        48.900          36.500  
  20667266.258 7       870.970 7       678.67848    280257.637 7    231924.12148
  20667261.77748        50.200          35.600  
  22726463.625 6      3579.273 6      2789.04447  -2315537.566 6  -1778163.33247
  22726458.32447        43.700          27.900  
  21637992.695 7     -1773.461 7     -1381.91648   3321634.930 7   2580099.85948
  21637988.05148        48.200          34.200  
  22018130.172 6      2828.136 6      2203.74348  -1677443.391 6  -1274683.49648
  22018124.62548        47.000          36.200  
  25122410.609 3      -505.043 3      -393.53945   1916477.074 3   1494487.80145
  25122405.15645        36.400          17.400  
  22462599.578 6     -2351.825 6     -1832.59047   4260976.531 6   3294652.86747
  22462595.60947        47.200          32.800  
  24180739.070 5      -275.231 5      -214.46646   1640286.176 5   1280704.82446
  24180734.74246        42.100          23.000  
  24569108.820 5      4072.860 5      3173.65946  -1455431.105 5   -956050.37146
  24569105.69546        40.400          22.600  
 08  1 16 16 41 30.0000000  0 10G01G02G04G05G09G12G14G17G20G30    0.000417688
  25407353.789 5      1090.440 5       849.69245    803034.465 5    644764.63345
  25407348.96945        39.400          18.300  
  21987485.070 7      3350.909 7      2611.09748  -2325813.289 7  -1783903.94548
  21987478.62548        49.000          36.400  
  20664796.492 7       865.199 7       674.18048    267279.652 7    221811.41448
  20664791.60548        50.700          35.500  
  22716244.164 6      3580.119 6      2789.70347  -2369239.352 6  -1820008.87947
  22716239.02047        42.600          26.900  
  21643068.727 7     -1778.307 7     -1385.69348   3348309.531 7   2600885.25448
  21643064.15248        48.600          33.900  
  22010057.484 6      2827.936 6      2203.58748  -1719862.430 6  -1307737.29748
  22010052.29348        47.300          36.400  
  25123864.188 2      -509.240 2      -396.81045   1924115.672 2   1500439.95345
  25123858.66845        35.600          16.900  
  22469309.242 6     -2350.437 6     -1831.51047   4296233.086 6   3322125.51647
  22469304.51647        47.000          33.400  
  24181540.211 5      -280.288 5      -218.40746   1644490.496 5   1283980.92246
  24181535.10546        40.800          22.000  
  24557474.867 5      4076.237 5      3176.28846  -1516574.652 5  -1003694.68446
  24557471.24246        41.300          21.800  
 08  1 16 16 41 45.0000000  0 10G01G02G04G05G09G12G14G17G20G30    0.000414015
  25404251.086 4      1086.445 4       846.58045    786737.785 4    632065.93045
  25404247.58245        37.600          17.800  
  21977923.016 7      3349.977 7      2610.37148  -2376062.938 7  -1823059.50448
  21977916.25048        49.000          36.000  
  20662342.328 7       859.740 7       669.92748    254383.551 7    211762.50448
  20662337.77348        50.200          35.700  
  22706022.219 6      3581.264 6      2790.59647  -2422958.313 6  -1861867.81647
  22706017.27047        42.800          27.900  
  21648157.516 7     -1782.818 7     -1389.20848   3375051.793 7   2621723.37148
  21648152.74248        48.300          34.200  
  22001985.617 7      2828.042 7      2203.66848  -1762283.051 7  -1340792.31348
  22001979.81348        47.600          36.500  
  25125328.281 2      -513.119 2      -399.83445   1931812.453 2   1506437.46945
  25125323.43045        34.800          17.800  
  22476012.883 6     -2348.724 6     -1830.17347   4331463.941 6   3349578.11347
  22476008.84047        47.500          33.600  
  24182353.742 5      -285.013 5      -222.08746   1648765.695 5   1287312.22746
  24182348.74646        40.900          21.800  
  24545828.992 5      4079.920 5      3179.15646  -1577773.453 5  -1051382.03146
  24545825.55146        40.400          21.100  
 08  1 16 16 42  0.0000000  0 10G01G02G04G05G09G12G14G17G20G30    0.000410294
  25401162.133 4      1082.309 4       843.36145    770503.148 4    619415.51245
  25401158.09045        37.600          18.300  
  21968363.930 7      3348.884 7      2609.52048  -2426296.191 7  -1862202.29748
  21968357.14148        48.800          36.500  
  20659904.555 7       854.151 7       665.57348    241571.281 7    201778.91048
  20659899.88748        51.200          36.100  
  22695796.750 6      3582.249 6      2791.36247  -2476692.047 6  -1903738.25047
  22695791.60947        43.400          27.800  
  21653259.711 7     -1787.444 7     -1392.81348   3401863.453 7   2642615.57048
  21653254.89148        48.800          34.300  
  21993913.367 6      2827.986 6      2203.62648  -1804702.840 6  -1373846.70348
  21993907.51248        47.100          35.700  
  25126803.867 3      -517.098 3      -402.92945   1939568.930 3   1512481.41045
  25126799.95345        35.700          16.300  
  22482713.031 6     -2347.136 6     -1828.93647   4366670.980 6   3377012.15647
  22482708.21147        47.500          33.500  
  24183181.602 5      -289.877 5      -225.87946   1653113.844 5   1290700.41446
  24183176.14546        42.000          22.000  
  24534172.258 5      4083.450 5      3181.91046  -1639025.207 5  -1099110.68446
  24534168.73446        42.200          20.400  
 08  1 16 16 42 15.0000000  0 10G01G02G04G05G09G12G14G17G20G30    0.000406528
  25398085.836 4      1078.075 4       840.05746    754332.023 4    606814.65646
  25398081.26246        38.700          19.300  
  21958808.320 7      3347.674 7      2608.57648  -2476511.297 7  -1901330.94148
  21958801.55948        49.900          36.800  
  20657482.570 7       848.454 7       661.13348    228844.465 7    191861.91448
  20657478.14148        50.800          35.900  
  22685569.141 6      3583.116 6      2792.03847  -2530438.785 6  -1945618.82447
  22685563.95747        43.000          26.400  
  21658375.148 7     -1792.148 7     -1396.47847   3428745.680 7   2663562.74647
  21658370.70347        48.600          33.700  
  21985842.023 6      2827.809 6      2203.48948  -1847119.980 6  -1406899.03148
  21985836.35948        47.500          36.000  
  25128292.016 2      -521.175 2      -406.11345   1947386.559 2   1518573.10245
  25128287.70745        35.200          16.900  
  22489408.148 6     -2345.645 6     -1827.77547   4401855.648 6   3404428.78147
  22489403.78947        47.000          33.500  
  24184021.742 5      -294.841 5      -229.74946   1657536.465 5   1294146.64546
  24184017.65246        40.200          22.300  
  24522507.891 5      4086.859 5      3184.56946  -1700328.098 5  -1146879.22346
  24522503.94546        40.900          22.200  
 08  1 16 16 42 30.0000000  0 10G01G02G04G05G09G12G14G17G20G30    0.000402719
  25395019.836 3      1073.697 3       836.64945    738226.574 3    594264.92645
  25395016.42645        35.700          17.800  
  21949256.406 7      3346.322 7      2607.52348  -2526706.121 7  -1940443.78548
  21949250.21948        48.300          36.300  
  20655077.219 7       842.621 7       656.58848    216205.152 7    182013.09448
  20655073.36748        50.600          35.200  
  22675339.766 6      3583.838 6      2792.60147  -2584196.352 6  -1987507.84447
  22675334.54747        43.100          27.200  
  21663504.484 6     -1796.956 6     -1400.22547   3455700.016 6   2684566.12147
  21663499.66047        47.500          33.100  
  21977771.367 7      2827.489 7      2203.23848  -1889532.316 7  -1439947.59848
  21977765.20348        48.500          36.000  
  25129791.391 3      -525.379 3      -409.38745   1955267.246 3   1524713.91045
  25129786.90645        35.800          15.600  
  22496100.383 6     -2344.273 6     -1826.70547   4437019.738 6   3431829.35247
  22496095.10247        46.600          33.600  
  24184879.727 5      -299.931 5      -233.71146   1662035.426 5   1297652.30546
  24184873.91446        41.500          21.700  
  24510831.781 5      4090.136 5      3187.11546  -1761680.145 5  -1194685.95346
  24510829.64546        39.200          21.100  
 08  1 16 16 42 45.0000000  0 10G01G02G04G05G09G12G14G17G20G30    0.000398865
  25391967.055 2      1069.460 2       833.34745    722184.668 2    581764.71545
  25391964.61745        34.900          16.300  
  21939708.313 7      3345.087 7      2606.56148  -2576882.434 7  -1979542.19548
  21939701.90648        49.400          36.600  
  20652688.695 7       836.945 7       652.16548    203650.973 7    172230.61748
  20652683.79748        50.200          35.500  
  22665107.477 6      3584.687 6      2793.26247  -2637966.656 6  -2029406.77747
  22665101.69947        43.100          26.500  
  21668646.328 7     -1801.594 7     -1403.84047   3482723.930 7   2705623.71947
  21668642.35947        47.600          32.800  
  21969700.289 6      2827.310 6      2203.09948  -1931941.973 6  -1472994.09048
  21969694.93448        47.000          35.100  
  25131302.461 2      -529.422 2      -412.53845   1963208.574 2   1530901.97345
  25131297.88345        35.400          17.400  
  22502786.891 6     -2342.747 6     -1825.51747   4472160.941 6   3459212.10547
  22502782.33247        46.800          33.000  
  24185748.484 5      -304.861 5      -237.55746   1666608.344 5   1301215.66446
  24185743.94946        41.200          21.300  
  24499147.586 5      4093.531 5      3189.76746  -1823083.105 5  -1242532.46546
  24499143.73846        41.200          19.900  
 08  1 16 16 43  0.0000000  0 10G01G02G04G05G09G12G14G17G20G30    0.000394966
  25388926.789 4      1065.209 4       830.03445    706206.539 4    569314.19945
  25388923.35545        38.100          17.400  
  21930163.555 7      3343.829 7      2605.58248  -2627039.875 7  -2018625.91848
  21930156.97748        49.300          37.600  
  20650315.523 7       831.253 7       647.73048    191182.176 7    162514.66448
  20650311.03948        50.200          36.100  
  22654872.867 6      3585.503 6      2793.89847  -2691749.195 6  -2071315.25447
  22654867.75847        43.600          28.000  
  21673802.680 7     -1806.237 7     -1407.45547   3509817.484 7   2726735.54747
  21673798.06647        48.300          33.500  
  21961630.672 7      2827.101 7      2202.93648  -1974348.492 7  -1506038.12548
  21961625.26648        48.600          36.600  
  25132825.273 4      -533.466 4      -415.68545   1971210.559 4   1537137.25045
  25132821.41045        37.800          18.600  
  22509469.852 7     -2341.219 7     -1824.32647   4507279.219 7   3486577.00047
  22509464.89547        47.600          33.100  
  24186633.625 5      -309.812 5      -241.40946   1671255.527 5   1304836.80546
  24186628.09846        41.100          21.700  
  24487453.602 5      4096.902 5      3192.39246  -1884536.637 5  -1290418.34846
  24487449.63346        40.200          20.100  
 08  1 16 16 43 15.0000000  0 10G01G02G04G05G09G12G14G17G20G30    0.000391024
  25385899.156 4      1060.860 4       826.64245    690293.633 4    556914.57445
  25385895.46545        37.400          17.800  
  21920622.867 7      3342.458 7      2604.51248  -2677176.754 7  -2057693.60548
  21920616.48848        49.100          37.000  
  20647959.477 7       825.463 7       643.21748    178800.238 7    152866.40248
  20647954.93848        51.100          36.300  
  22644635.969 6      3586.213 6      2794.45147  -2745542.391 6  -2113232.02347
  22644631.69947        43.200          27.700  
  21678971.461 7     -1810.944 7     -1411.12548   3536981.641 7   2747902.41448
  21678967.06348        48.000          34.000  
  21953561.938 7      2826.774 7      2202.68148  -2016750.102 7  -1539078.34448
  21953556.70348        48.300          37.400  
  25134359.555 3      -537.588 3      -418.89945   1979274.383 3   1543420.74245
  25134355.58645        36.100          17.800  
  22516148.313 6     -2339.773 6     -1823.19847   4542375.813 6   3513924.97747
  22516144.09047        47.100          33.700  
  24187531.695 5      -314.835 5      -245.32946   1675978.059 5   1308516.73446
  24187527.20346        41.400          22.300  
  24475749.289 5      4100.159 5      3194.92546  -1946039.023 5  -1338342.21546
  24475746.52346        40.200          21.300  
 08  1 16 16 43 30.0000000  0 10G01G02G04G05G09G12G14G17G20G30    0.000387037
  25382883.984 4      1056.429 4       823.19046    674447.199 4    544566.71946
  25382879.83646        38.600          19.300  
  21911086.125 7      3340.996 7      2603.37348  -2727291.691 7  -2096744.20348
  21911080.00848        48.800          36.700  
  20645619.680 7       819.589 7       638.64148    166506.398 7    143286.78148
  20645615.56348        50.700          35.600  
  22634397.508 6      3586.820 6      2794.92547  -2799344.691 6  -2155155.89547
  22634393.02747        43.900          27.900  
  21684154.758 7     -1815.711 7     -1414.83948   3564217.305 7   2769125.00448
  21684150.07448        48.300          33.800  
  21945494.453 7      2826.349 7      2202.35048  -2059145.336 7  -1572113.59448
  21945489.15248        47.800          36.800  
  25135906.352 4      -541.777 4      -422.16346   1987401.039 4   1549753.18846
  25135901.83246        37.700          19.000  
  22522823.016 6     -2338.390 6     -1822.12147   4577451.664 6   3541256.79347
  22522818.47347        46.700          33.100  
  24188444.992 5      -319.938 5      -249.30246   1680777.121 5   1312256.25846
  24188440.09046        41.600          21.800  
  24464037.820 5      4103.319 5      3197.39446  -2007588.813 5  -1386303.11746
  24464033.55946        40.500          22.000  
 08  1 16 16 43 45.0000000  0 10G01G02G04G05G09G12G14G17G20G30    0.000383005
  25379879.781 4      1052.171 4       819.87445    658664.637 4    532268.60245
  25379876.89845        37.700          17.800  
  21901553.156 7      3339.685 7      2602.35148  -2777386.961 7  -2135779.46548
  21901546.91848        48.900          36.800  
  20643296.813 7       813.899 7       634.20748    154297.918 7    133773.68048
  20643292.35948        51.100          36.200  
  22624157.461 6      3587.590 6      2795.52547  -2853158.535 6  -2197088.76647
  22624152.63747        44.100          28.100  
  21689350.344 7     -1820.277 7     -1418.39847   3591521.465 7   2790400.96947
  21689345.93847        48.700          33.600  
  21937427.992 7      2826.096 7      2202.15248  -2101536.777 7  -1605145.87948
  21937422.03948        48.300          36.600  
  25137464.492 3      -545.776 3      -425.28245   1995587.684 3   1556132.41045
  25137460.02045        37.000          17.800  
  22529493.523 6     -2336.821 6     -1820.89947   4612503.984 6   3568570.27347
  22529488.77047        47.300          33.300  
  24189372.180 5      -324.854 5      -253.13346   1685649.930 5   1316053.25446
  24189367.32446        40.500          21.100  
  24452314.594 4      4106.644 4      3199.98346  -2069188.477 4  -1434302.86346
  24452310.68846        38.100          19.900  
 08  1 16 16 44  0.0000000  0 10G01G02G04G05G09G12G14G17G20G30    0.000378931
  25376888.742 4      1047.722 4       816.40445    642948.813 4    520022.53545
  25376885.76645        37.500          18.300  
  21892024.102 7      3338.181 7      2601.17948  -2827459.680 7  -2174797.14848
  21892018.35248        49.200          36.600  
  20640990.320 7       808.039 7       629.64048    142177.340 7    124329.07848
  20640985.97748        50.500          35.700  
  22613915.367 6      3588.164 6      2795.97147  -2906980.988 6  -2239028.33247
  22613910.42247        44.400          28.700  
  21694559.688 7     -1824.998 7     -1422.07647   3618896.434 7   2811732.10247
  21694555.08247        48.400          33.500  
  21929362.109 7      2825.655 7      2201.80948  -2143921.594 7  -1638173.01648
  21929356.72748        47.900          36.900  
  25139034.148 3      -549.947 3      -428.52745   2003836.895 3   1562560.31645
  25139029.72745        37.000          18.300  
  22536159.305 6     -2335.421 6     -1819.80847   4647535.297 6   3595867.39547
  22536154.84847        46.300          33.400  
  24190314.352 5      -329.951 5      -257.10546   1690599.199 5   1319909.83646
  24190308.93046        41.500          21.100  
  24440584.609 5      4109.770 5      3202.41646  -2130835.020 5  -1482339.10246
  24440580.60246        41.400          20.600  
 08  1 16 16 44 15.0000000  0 10G01G02G04G05G09G12G14G17G20G30    0.000374813
  25373911.703 4      1043.410 4       813.04745    627297.668 4    507826.83645
  25373907.31645        38.600          18.600  
  21882500.297 7      3336.794 7      2600.09948  -2877511.590 7  -2213798.63348
  21882493.73448        48.800          36.800  
  20638699.914 7       802.302 7       625.17048    130142.816 7    114951.52748
  20638695.63748        50.400          35.900  
  22603670.969 6      3588.852 6      2796.50947  -2960813.770 6  -2280975.96147
  22603666.59847        42.900          28.100  
  21699782.055 7     -1829.549 7     -1425.62247   3646339.668 7   2833116.43047
  21699777.01647        48.300          33.500  
  21921297.359 6      2825.319 6      2201.54748  -2186301.383 6  -1671196.22348
  21921292.00848        47.300          36.800  
  25140615.438 3      -553.970 3      -431.66646   2012146.441 3   1569035.31346
  25140611.12146        36.400          19.000  
  22542821.375 6     -2333.885 6     -1818.61147   4682543.578 6   3623146.56647
  22542816.40647        46.000          32.800  
  24191270.148 6      -334.907 6      -260.96646   1695622.809 6   1323824.33246
  24191265.02046        42.700          22.500  
  24428843.625 5      4113.015 5      3204.95046  -2192530.242 5  -1530413.35246
  24428839.96146        40.200          21.800  
 08  1 16 16 44 30.0000000  0 10G01G02G04G05G09G12G14G17G20G30    0.000370649
  25370946.172 5      1039.025 5       809.63146    611712.301 5    495682.36746
  25370942.15646        39.200          20.100  
  21872979.766 7      3335.330 7      2598.95848  -2927541.539 7  -2252783.00448
  21872973.44948        48.700          35.400  
  20636426.859 7       796.505 7       620.65348    118195.246 7    105641.72748
  20636422.32448        49.800          35.400  
  22593425.938 6      3589.458 6      2796.97947  -3014655.637 6  -2322930.64847
  22593420.87947        43.800          27.100  
  21705017.180 6     -1834.145 6     -1429.20447   3673851.840 6   2854554.48447
  21705012.53947        47.300          32.600  
  21913233.984 6      2824.913 6      2201.23148  -2228675.082 6  -1704214.68848
  21913228.99648        47.000          36.400  
  25142208.234 2      -558.040 2      -434.83445   2020517.039 2   1575557.82045
  25142203.93045        35.400          17.800  
  22549479.086 6     -2332.397 6     -1817.45147   4717529.531 6   3650408.33247
  22549474.28947        46.000          32.600  
  24192240.977 5      -339.922 5      -264.87446   1700721.637 5   1327797.43846
  24192235.26646        41.300          21.800  
  24417095.109 4      4116.199 4      3207.42545  -2254273.227 4  -1578524.72745
  24417090.26645        38.500          18.600  
 08  1 16 16 44 45.0000000  0 10G01G02G04G05G09G12G14G17G20G30    0.000366444
  25367993.344 4      1034.555 4       806.14645    596193.969 4    483590.18045
  25367988.78545        38.700          18.600  
  21863464.086 7      3333.767 7      2597.74048  -2977548.043 7  -2291749.10248
  21863457.35948        48.100          36.400  
  20634169.797 7       790.624 7       616.07148    106335.879 7     96400.66048
  20634165.51648        49.400          35.500  
  22583178.367 6      3589.960 6      2797.37247  -3068505.031 6  -2364891.22747
  22583173.72747        43.700          26.700  
  21710266.180 6     -1838.818 6     -1432.84547   3701434.113 6   2876047.15647
  21710261.06647        47.300          32.700  
  21905171.516 6      2824.402 6      2200.83348  -2271041.109 6  -1737227.17648
  21905166.74248        47.400          36.500  
  25143813.008 3      -562.176 3      -438.06045   2028949.676 3   1582128.71545
  25143808.25445        35.700          17.400  
  22556132.406 6     -2330.973 6     -1816.34347   4752494.133 6   3677653.47747
  22556127.44147        45.900          32.500  
  24193225.125 5      -345.017 5      -268.84546   1705896.887 5   1331830.11746
  24193219.89146        41.600          20.600  
  24405336.445 5      4119.267 5      3209.81946  -2316062.234 5  -1626672.01246
  24405332.62146        40.500          21.800  
 08  1 16 16 45  0.0000000  0 10G01G02G04G05G09G12G14G17G20G30    0.000362196
  25365052.133 4      1030.021 4       802.61546    580743.656 4    471550.96146
  25365048.59046        39.100          19.000  
  21853952.508 7      3332.117 7      2596.45348  -3027529.793 7  -2330695.90248
  21853946.41048        48.600          36.000  
  20631929.781 7       784.686 7       611.44448     94565.582 7     87229.00448
  20631925.61748        49.000          34.700  
  22572929.656 6      3590.388 6      2797.70447  -3122360.848 6  -2406856.79347
  22572924.97747        43.800          27.000  
  21715528.641 6     -1843.526 6     -1436.51347   3729087.000 6   2897594.84847
  21715523.39547        47.500          32.800  
  21897111.578 6      2823.823 6      2200.38148  -2313398.457 6  -1770232.89148
  21897106.63748        47.500          35.900  
  25145430.766 2      -566.364 2      -441.32446   2037445.137 2   1588748.57046
  25145424.63746        35.400          19.000  
  22562782.453 6     -2329.605 6     -1815.27547   4787438.203 6   3704882.60247
  22562777.19547        45.400          31.900  
  24194224.633 5      -350.161 5      -272.85146   1711149.309 5   1335922.87946
  24194219.52346        40.500          21.500  
  24393569.781 4      4122.270 4      3212.15346  -2377896.277 4  -1674854.30946
  24393565.47346        37.400          20.900  
 08  1 16 16 45 15.0000000  0 10G01G02G04G05G09G12G14G17G20G30    0.000357904
  25362125.992 5      1025.420 5       799.03346    565362.352 5    459565.46546
  25362121.17646        39.700          19.600  
  21844445.984 7      3330.390 7      2595.10848  -3077485.641 7  -2369622.52348
  21844440.40248        48.000          36.300  
  20629707.375 7       778.684 7       606.76748     82885.324 7     78127.50448
  20629703.16048        48.600          35.300  
  22562680.391 6      3590.735 6      2797.97647  -3176221.871 6  -2448826.43847
  22562675.28147        42.900          26.600  
  21720804.125 6     -1848.262 6     -1440.20547   3756810.930 6   2919197.91847
  21720799.15247        47.000          32.300  
  21889053.406 6      2823.181 6      2199.88248  -2355746.172 6  -1803231.12148
  21889048.43048        45.500          36.800  
  25147057.891 2      -570.596 2      -444.62045   2046004.074 2   1595417.87145
  25147053.41445        35.000          18.300  
  22569428.078 6     -2328.284 6     -1814.24747   4822362.461 6   3732096.30947
  22569423.16047        45.600          32.000  
  24195239.719 5      -355.357 5      -276.90346   1716479.656 5   1340076.43046
  24195234.23846        40.700          21.500  
  24381794.664 5      4125.181 5      3214.43146  -2439773.992 5  -1723070.77746
  24381789.56646        40.200          20.100  
 08  1 16 16 45 30.0000000  0 10G01G02G04G05G09G12G14G17G20G30    0.000353573
  25359212.641 5      1020.784 5       795.41446    550050.590 5    447634.26246
  25359208.12946        40.000          22.200  
  21834944.930 7      3328.618 7      2593.72848  -3127414.918 7  -2408528.43848
  21834938.71548        49.700          36.400  
  20627502.250 7       772.657 7       602.07048     71295.473 7     69096.44948
  20627497.66448        49.500          35.700  
  22552430.523 6      3591.031 6      2798.20747  -3230087.340 6  -2490799.53547
  22552425.80547        44.400          28.100  
  21726092.984 7     -1853.010 7     -1443.90347   3784606.074 7   2940856.46147
  21726088.69147        48.100          33.600  
  21880996.508 6      2822.457 6      2199.31648  -2398083.020 6  -1836220.86348
  21880991.75048        46.800          36.900  
  25148699.516 4      -574.861 4      -447.94545   2054626.996 4   1602137.04345
  25148694.52345        38.400          18.300  
  22576069.883 6     -2326.987 6     -1813.23747   4857267.262 6   3759294.86347
  22576064.89847        45.500          32.100  
  24196268.094 5      -360.583 5      -280.97246   1721888.402 5   1344291.00846
  24196263.20746        41.600          21.800  
  24370012.195 5      4128.053 5      3216.66446  -2501694.785 5  -1771320.73046
  24370007.52046        40.400          21.800  
 08  1 16 16 45 45.0000000  0 10G01G02G04G05G09G12G14G17G20G30    0.000349199
  25356312.359 5      1016.040 5       791.72146    534809.988 5    435758.44946
  25356308.85246        41.600          23.000  
  21825449.109 7      3326.725 7      2592.25348  -3177315.793 7  -2447412.23448
  21825442.77348        49.800          35.700  
  20625313.984 7       766.528 7       597.29548     59797.555 7     60137.02748
  20625309.55548        48.900          36.100  
  22542180.391 6      3591.207 6      2798.34247  -3283955.445 6  -2532774.66847
  22542174.94147        43.500          28.500  
  21731396.688 7     -1857.834 7     -1447.66247   3812473.582 7   2962571.39147
  21731391.71947        47.800          33.500  
  21872942.664 6      2821.624 6      2198.66848  -2440407.371 6  -1869200.87948
  21872937.37148        46.100          37.800  
  25150352.180 3      -579.200 3      -451.32346   2063314.996 3   1608906.88746
  25150347.27746        37.100          19.000  
  22582708.258 6     -2325.780 6     -1812.29547   4892153.961 6   3786479.28147
  22582703.98847        44.900          31.500  
  24197313.609 5      -365.907 5      -285.12246   1727377.012 5   1348567.83246
  24197307.34846        41.600          22.000  
  24358220.711 5      4130.800 5      3218.80346  -2563656.793 5  -1819602.77346
  24358215.76646        40.500          19.300  
 08  1 16 16 46  0.0000000  0 10G01G02G04G05G09G12G14G17G20G30    0.000344786
  25353425.375 5      1011.389 5       788.09646    519639.152 5    423937.00846
  25353421.64846        40.700          21.500  
  21815958.461 7      3324.910 7      2590.83848  -3227189.438 7  -2486274.80548
  21815951.73448        49.100          35.600  
  20623143.117 7       760.487 7       592.58848     48390.246 7     51248.21148
  20623138.94548        48.800          35.500  
  22531928.586 6      3591.459 6      2798.54147  -3337827.332 6  -2574752.78147
  22531923.94947        43.900          27.400  
  21736712.617 7     -1862.545 7     -1451.33347   3840411.762 7   2984341.39147
  21736707.70347        47.800          32.800  
  21864890.641 6      2820.882 6      2198.09048  -2482720.594 6  -1902172.22348
  21864885.43048        47.200          37.200  
  25152018.203 3      -583.429 3      -454.61745   2072066.426 3   1615726.14845
  25152012.57845        36.600          18.300  
  22589343.813 6     -2324.467 6     -1811.27247   4927020.961 6   3813648.36747
  22589338.86347        44.300          31.500  
  24198373.063 5      -371.135 5      -289.19646   1732944.035 5   1352905.77746
  24198366.41046        41.200          21.100  
  24346422.102 5      4133.626 5      3221.01146  -2625661.191 5  -1867917.94146
  24346416.62946        40.000          20.900  
 08  1 16 16 46 15.0000000  0 10G01G02G04G05G09G12G14G17G20G30    0.000340330
  25350551.523 5      1006.714 5       784.45246    504538.441 5    412170.22746
  25350547.24246        39.600          19.600  
  21806473.367 7      3323.040 7      2589.38148  -3277035.031 7  -2525115.52048
  21806466.39848        48.500          35.300  
  20620989.773 7       754.429 7       587.86648     37073.816 7     42430.21948
  20620985.20348        48.500          35.100  
  22521676.406 6      3591.670 6      2798.70347  -3391702.383 6  -2616733.32047
  22521671.61747        43.800          27.100  
  21742043.008 6     -1867.257 6     -1455.00547   3868420.613 6   3006166.46147
  21742037.93447        46.800          32.700  
  21856841.461 6      2820.094 6      2197.47648  -2525022.004 6  -1935134.36348
  21856835.76248        47.000          36.900  
  25153695.742 2      -587.679 2      -457.93345   2080881.609 2   1622595.14145
  25153690.04745        35.200          17.400  
  22595975.734 6     -2323.164 6     -1810.25647   4961868.422 6   3840802.21147
  22595970.28547        44.500          31.300  
  24199446.805 5      -376.365 5      -293.27246   1738589.516 5   1357304.85946
  24199440.89846        41.600          19.900  
  24334615.563 4      4136.420 4      3223.18346  -2687707.500 4  -1916265.69146
  24334610.35246        38.400          20.100  
 08  1 16 16 46 30.0000000  0 10G01G02G04G05G09G12G14G17G20G30    0.000335835
  25347691.594 5      1001.924 5       780.71946    489509.586 5    400459.44946
  25347687.64546        40.000          20.600  
  21796993.664 7      3321.065 7      2587.84248  -3326851.004 7  -2563933.14848
  21796986.93848        49.200          35.300  
  20618853.750 7       748.261 7       583.06148     25849.895 7     33684.29748
  20618849.48048        49.800          35.400  
  22511423.195 6      3591.762 6      2798.77747  -3445578.809 6  -2658714.97347
  22511418.94147        42.600          27.400  
  21747386.602 7     -1872.040 7     -1458.73347   3896501.219 7   3028047.44947
  21747381.46947        48.500          33.200  
  21848793.828 7      2819.187 7      2196.76948  -2567309.801 7  -1968085.89148
  21848788.70748        47.600          37.400  
  25155385.453 2      -592.009 2      -461.30845   2089761.738 2   1629514.76245
  25155379.66845        34.600          17.400  
  22602602.836 6     -2321.967 6     -1809.32447   4996697.922 6   3867942.07447
  22602598.12147        45.000          32.200  
  24200536.836 5      -381.703 5      -297.42846   1744315.063 5   1361766.28146
  24200530.73446        42.200          20.400  
  24322801.602 5      4139.089 5      3225.26246  -2749793.836 5  -1964644.62946
  24322796.01246        39.500          21.300  
 08  1 16 16 46 45.0000000  0 10G01G02G04G05G09G12G14G17G20G30    0.000331297
  25344844.727 5       997.251 5       777.07946    474550.828 5    388803.27046
  25344840.82846        39.400          19.600  
  21787519.430 7      3319.187 7      2586.37948  -3376638.805 7  -2602728.83248
  21787512.45748        49.800          36.700  
  20616735.320 7       742.225 7       578.35748     14716.516 7     25008.94548
  20616730.73848        49.900          35.600  
  22501171.109 6      3591.942 6      2798.91547  -3499457.938 6  -2700698.69147
  22501166.40247        42.800          27.700  
  21752742.914 7     -1876.691 7     -1462.35647   3924651.590 7   3049982.78547
  21752738.36347        48.500          33.600  
  21840749.094 6      2818.380 6      2196.14048  -2609585.508 6  -2001027.99648
  21840743.93048        47.200          37.400  
  25157086.773 2      -596.215 2      -464.58045   2098704.969 2   1636483.46145
  25157081.87945        34.500          16.900  
  22609227.055 6     -2320.633 6     -1808.28547   5031507.422 6   3895066.34847
  22609222.09447        45.100          32.600  
  24201640.906 5      -386.932 5      -301.50646   1750119.047 5   1366288.87146
  24201635.04746        41.300          20.900  
  24310978.000 5      4141.868 5      3227.43346  -2811921.855 5  -2013056.12546
  24310972.55946        39.900          20.100  
 08  1 16 16 47  0.0000000  0 10G01G02G04G05G09G12G14G17G20G30    0.000326717
  25342011.992 4       992.598 4       773.45246    459661.852 4    377201.49246
  25342007.41446        38.400          20.100  
  21778050.680 7      3317.326 7      2584.92948  -3426398.695 7  -2641502.76648
  21778043.55148        49.600          35.200  
  20614633.859 7       736.212 7       573.67248      3673.332 7     16403.86348
  20614629.37148        49.700          34.900  
  22490917.930 6      3592.142 6      2799.07347  -3553340.066 6  -2742684.78147
  22490913.23847        43.200          27.600  
  21758112.906 6     -1881.285 6     -1465.93547   3952870.859 6   3071971.81647
  21758108.47347        47.400          33.200  
  21832706.758 7      2817.590 7      2195.52548  -2651849.352 7  -2033960.86748
  21832701.49648        47.700          36.800  
  25158801.320 3      -600.379 3      -467.83045   2107710.660 3   1643500.91445
  25158795.82045        36.000          17.400  
  22615847.477 6     -2319.262 6     -1807.21747   5066296.348 6   3922174.60247
  22615842.27047        44.500          31.900  
  24202759.438 5      -392.113 5      -305.54346   1756000.742 5   1370872.01246
  24202754.46946        40.000          20.600  
  24299147.609 5      4144.655 5      3229.60046  -2874091.688 5  -2061500.12946
  24299142.05146        39.200          20.100  
 08  1 16 16 47 15.0000000  0 10G01G02G04G05G09G12G14G17G20G30    0.000322100
  25339193.023 5       987.579 5       769.54546    444848.172 5    365658.32046
  25339187.89146        40.100          19.900  
  21768587.945 7      3315.076 7      2583.17648  -3476124.840 7  -2680250.40248
  21768581.03148        49.600          35.300  
  20612550.992 7       729.827 7       568.69648     -7274.070 7      7873.41848
  20612545.68448        49.200          34.900  
  22480664.563 6      3591.948 6      2798.92247  -3607219.289 6  -2784668.60547
  22480659.96147        43.300          26.900  
  21763496.844 7     -1886.231 7     -1469.79047   3981164.328 7   3094018.67247
  21763492.35547        48.000          33.000  
  21824667.414 6      2816.410 6      2194.60548  -2694095.500 6  -2066879.94148
  21824662.30148        47.500          37.300  
  25160527.805 2      -604.899 2      -471.35045   2116784.152 2   1650571.16845
  25160522.06345        34.800          16.900  
  22622464.406 6     -2318.253 6     -1806.43047   5101070.137 6   3949271.04747
  22622459.37547        45.600          31.700  
  24203893.961 5      -397.645 5      -309.85246   1761965.418 5   1375519.79746
  24203889.75046        39.700          21.300  
  24287310.430 5      4147.057 5      3231.47246  -2936297.539 5  -2109972.20746
  24287305.74646        40.000          20.100  
 08  1 16 16 47 30.0000000  0 10G01G02G04G05G09G12G14G17G20G30    0.000317442
  25336388.148 5       982.611 5       765.66946    430109.012 5    354173.29346
  25336383.59446        40.200          21.100  
  21759131.883 7      3312.862 7      2581.45248  -3525817.773 7  -2718972.17648
  21759124.47348        50.300          35.700  
  20610485.172 7       723.509 7       563.77348    -18126.711 7      -583.17648
  20610480.84848        49.700          35.700  
  22470412.734 6      3591.797 6      2798.80247  -3661096.250 6  -2826650.64547
  22470407.98847        44.100          29.000  
  21768895.250 7     -1891.093 7     -1473.57948   4009530.723 7   3116122.35248
  21768890.28948        48.900          34.000  
  21816631.398 7      2815.277 7      2193.72248  -2736324.648 7  -2099785.77048
  21816626.57848        47.600          38.200  
  25162266.820 3      -609.341 3      -474.81245   2125924.270 3   1657693.34845
  25162261.57445        35.700          18.300  
  22629078.266 6     -2317.173 6     -1805.58947   5135827.738 6   3976354.88347
  22629073.50847        45.400          33.200  
  24205045.867 5      -403.115 5      -314.11646   1768012.148 5   1380231.54346
  24205040.64146        40.200          21.700  
  24275465.977 4      4149.493 4      3233.37246  -2998539.930 4  -2158472.79346
  24275460.54346        38.500          19.600  
 08  1 16 16 47 45.0000000  0 10G01G02G04G05G09G12G14G17G20G30    0.000312746
  25333596.969 5       977.808 5       761.92946    415441.898 5    342744.35546
  25333592.57046        39.800          20.600  
  21749681.086 7      3310.807 7      2579.85048  -3575479.883 7  -2757669.92648
  21749674.48448        49.300          35.900  
  20608437.734 7       717.357 7       558.98048    -28887.070 7     -8967.87948
  20608433.21548        49.900          35.700  
  22460159.969 6      3591.799 6      2798.80447  -3714973.230 6  -2868632.70747
  22460155.66447        42.800          28.400  
  21774306.656 7     -1895.760 7     -1477.21548   4037967.117 7   3138280.57048
  21774301.46148        49.100          33.900  
  21808598.008 7      2814.292 7      2192.95448  -2778539.020 7  -2132680.08648
  21808592.87148        48.400          38.100  
  25164019.219 3      -613.616 3      -478.13945   2135128.504 3   1664865.43445
  25164013.08245        37.300          16.900  
  22635689.289 6     -2315.912 6     -1804.60547   5170566.414 6   4003423.96147
  22635684.34447        46.000          33.200  
  24206211.969 5      -408.430 5      -318.25646   1774138.598 5   1385005.37946
