     2.10           OBSERVATION DATA    G (GPS)             RINEX VERSION / TYPE
teqc  2002Mar14     GSI, Japan          20070102 01:05:00UTCPGM / RUN BY / DATE
Linux 2.0.36|Pentium II|gcc -static|Linux|486/DX+           COMMENT
BIT 2 OF LLI FLAGS DATA COLLECTED UNDER A/S CONDITION       COMMENT
AIRA                                                        MARKER NAME
21742S001                                                   MARKER NUMBER
GSI                 Geographical Survey Institute           OBSERVER / AGENCY
21290               TRIMBLE 5700        1.24                REC # / TYPE / VERS
00031               TRM29659.00     DOME                    ANT # / TYPE
 -3530185.4892  4118797.3370  3344036.9313                  APPROX POSITION XYZ
        0.0000        0.0000        0.0000                  ANTENNA: DELTA H/E/N
     1     1                                                WAVELENGTH FACT L1/2
     6    L1    L2    C1    P2    S1    S2                  # / TYPES OF OBSERV
    30.0000                                                 INTERVAL
 SNR is mapped to RINEX snr flag value [1-9]                COMMENT
  L1: 3 -> 1; 8 -> 5; 40 -> 9                               COMMENT
  L2: 1 -> 1; 5 -> 5; 60 -> 9                               COMMENT
  2007     1     1     0     0    0.0000000     GPS         TIME OF FIRST OBS
                                                            END OF HEADER
							4  1
        (AN EVENT FLAG WITH SIGNIFICANT EPOCH)              COMMENT
 07  1  1  0  0  0.0000000  0  7G13G31G25G23G27G19G16
  -7244061.92649  -5627744.06047  22845039.6564   22845035.4924         43.7504
        30.7504
  -2365861.25049  -2855938.53847  23633146.7034   23633143.3834         39.7504
        28.5004
  -7887817.80149  -6613691.41747  22637559.4534   22637555.5314         47.0004
        35.0004
 -10666567.86749  -9429599.90647  22399110.7504   22399104.2464         47.0004
        37.2504
  -1712409.00049  -1190201.48546  24956414.7504   24956410.2894         36.7504
        19.5004
 -14268620.92649 -12449166.32048  20845187.5704   20845181.9384         51.0004
        46.7504
 -15023921.16449 -12087101.06548  21448404.5084   21448399.8094         51.5004
        43.2504
 07  1  1  0  0 30.0000000  0  7G13G31G25G23G27G19G16
  -7242522.05549  -5626544.16847  22845332.4844   22845328.4414         44.5004
        30.7504
  -2269312.59849  -2780705.91047  23651519.1484   23651515.5704         40.7504
        27.2504
  -7800217.55949  -6545431.52747  22654229.6484   22654224.9614         47.5004
        36.0004
 -10611771.95349  -9386901.80547  22409538.4454   22409531.8444         48.0004
        37.2504
  -1810672.61749  -1266770.54546  24937716.9694   24937711.8054         36.5004
        19.2504
 -14314071.35549 -12484582.24048  20836538.5864   20836532.5314         50.7504
        47.0004
 -14991914.10249 -12062160.50448  21454494.8054   21454490.2734         51.2504
        43.5004
 07  1  1  0  1  0.0000000  0  7G13G31G25G23G27G19G16
  -7240413.61349  -5624901.24247  22845733.9774   22845730.3674         45.0004
        31.5004
  -2172548.18449  -2705305.16146  23669932.2894   23669929.4804         38.2504
        25.5004
  -7712336.35949  -6476952.70347  22670952.6174   22670949.1294         47.0004
        36.0004
 -10556561.63749  -9343880.79247  22420043.5314   22420037.4024         47.2504
        36.7504
  -1908911.09449  -1343320.11746  24919022.1954   24919017.3634         37.5004
        19.5004
 -14359082.97349 -12519656.24048  20827973.4774   20827967.1454         51.2504
        47.0004
 -14959774.90649 -12037117.00348  21460611.1644   21460605.9774         51.0004
        43.0004
 07  1  1  0  1 30.0000000  0  7G13G31G25G23G27G19G16
  -7237738.16449  -5622816.49247  22846243.1954   22846238.5394         44.0004
        30.2504
  -2075570.78949  -2629738.39247  23688387.0864   23688383.6134         37.5004
        26.2504
  -7624176.67249  -6408256.87447  22687728.4694   22687725.2504         46.2504
        35.5004
 -10500940.64849  -9300539.80047  22430629.0554   22430622.3134         46.5004
        37.0004
  -2007123.07849  -1419848.89146  24900333.0784   24900328.5474         38.0004
        19.2504
 -14403656.30549 -12554388.70448  20819491.0394   20819485.4264         51.5004
        47.0004
 -14927504.41049 -12011971.16948  21466751.9614   21466747.3794         50.7504
        43.5004
 07  1  1  0  2  0.0000000  0  7G13G31G25G23G27G19G16
  -7234496.32449  -5620290.38847  22846860.3204   22846855.3054         44.5004
        30.5004
  -1978381.32049  -2554006.38747  23706882.6094   23706878.7814         39.7504
        26.0004
  -7535739.66849  -6339344.99747  22704557.7034   22704554.5354         46.5004
        35.7504
 -10444911.11349  -9256880.45647  22441290.5394   22441284.2624         46.2504
        36.7504
  -2105305.63749  -1496354.74646  24881648.5084   24881645.0784         36.7504
        19.5004
 -14447790.51249 -12588779.00148  20811092.7664   20811087.0474         50.7504
        47.2504
 -14895101.48049 -11986722.16748  21472917.9534   21472913.3404         50.7504
        43.0004
 07  1  1  0  2 30.0000000  0  7G13G31G25G23G27G19G16
  -7230688.50449  -5617323.26147  22847584.9614   22847579.8134         44.7504
        30.7504
  -1880981.70749  -2478110.64646  23725416.4534   23725411.7894         38.5004
        22.2504
  -7447027.26649  -6270218.49447  22721439.1254   22721435.5904         45.2504
        35.0004
 -10388476.15649  -9212905.19047  22452029.8674   22452023.3404         46.0004
        36.7504
  -2203457.16849  -1572836.46146  24862971.9614   24862967.6134         36.5004
        19.2504
 -14491485.64849 -12622827.16048  20802777.5554   20802771.5004         51.2504
        46.7504
 -14862566.09049 -11961369.92248  21479109.1414   21479104.1254         51.7504
        43.2504
 07  1  1  0  3  0.0000000  0  7G13G31G25G23G27G19G16
  -7226315.71949  -5613915.94047  22848416.6884   22848412.9534         45.2504
        31.2504
  -1783373.38348  -2402052.26246  23743988.8674   23743986.2114         32.5004
        19.0004
  -7358040.99649  -6200878.57847  22738372.8134   22738368.9774         46.5004
        33.7504
 -10331638.66449  -9168616.26747  22462845.7814   22462839.4224         46.2504
        35.5004
  -2301575.33249  -1649292.26446  24844300.5394   24844296.0204         37.0004
        19.2504
 -14534741.51249 -12656533.03048  20794546.5234   20794540.3484         51.7504
        46.7504
 -14829897.75049 -11935914.10548  21485326.2114   21485321.4144         51.2504
        43.0004
 07  1  1  0  3 30.0000000  0  7G13G31G25G23G27G19G16
  -7221379.01249  -5610069.16147  22849355.9384   22849352.1374         45.5004
        31.0004
  -1685558.34049  -2325832.93646  23762606.3054   23762600.6174         36.0004
        20.7504
  -7268782.66849  -6131326.68547  22755357.9924   22755355.2664         45.7504
        34.5004
 -10274401.40649  -9124015.82147  22473737.3674   22473730.6954         45.0004
        35.2504
  -2399658.46549  -1725720.62246  24825636.1254   24825631.9224         36.5004
        20.2504
 -14577557.89849 -12689896.46448  20786398.6884   20786392.9774         51.7504
        47.2504
 -14797096.12149 -11910354.41248  21491568.0084   21491563.3874         51.5004
        43.0004
 07  1  1  0  4  0.0000000  0  7G13G31G25G23G27G19G16
  -7215879.39549  -5605783.73547  22850402.9774   22850397.7154         46.7504
        31.0004
  -1587538.90649  -2249454.23846  23781258.1484   23781254.1094         39.5004
        22.2504
  -7179254.57849  -6061564.56247  22772395.0234   22772392.1374         46.0004
        34.7504
 -10216767.48449  -9079106.30747  22484704.2504   22484698.4734         43.5004
        34.0004
  -2497704.62949  -1802120.22946  24806978.3674   24806973.9924         37.5004
        19.2504
 -14619935.01249 -12722917.57848  20778334.5164   20778329.1994         51.5004
        47.5004
 -14764161.54349 -11884691.11248  21497835.3754   21497830.9964         51.7504
        43.5004
 07  1  1  0  4 30.0000000  0  7G13G31G25G23G27G19G16
  -7209817.75849  -5601060.40747  22851556.0944   22851551.9064         46.2504
        30.7504
  -1489316.48448  -2172917.28846  23799947.9774   23799943.8714         35.7504
        19.5004
  -7089457.91849  -5991593.20547  22789482.6094   22789480.0164         46.2504
        34.7504
 -10158739.44549  -9033889.70147  22495747.0784   22495740.9184         44.5004
        35.2504
  -2595711.62549  -1878489.32446  24788327.7734   24788323.8444         37.0004
        19.5004
 -14661872.42249 -12755596.08448  20770354.2034   20770348.5904         52.0004
        47.2504
 -14731093.08649 -11858923.49448  21504127.9534   21504123.2464         52.0004
        43.5004
 07  1  1  0  5  0.0000000  0  7G13G31G25G23G27G19G16
  -7203194.55949  -5595899.48547  22852816.5314   22852812.3284         46.2504
        31.0004
  -1390892.44148  -2096223.27346  23818676.4144   23818674.5744         34.5004
        20.0004
  -6999394.46949  -5921413.92647  22806620.7894   22806618.1454         45.2504
        33.7504
 -10100319.93049  -8988368.02747  22506863.8444   22506857.9414         46.5004
        36.2504
  -2693677.20349  -1954826.13246  24769685.3524   24769681.2584         36.0004
        19.5004
 -14703370.02049 -12787931.87248  20762457.3524   20762451.4344         51.0004
        47.0004
 -14697890.69149 -11833051.51548  21510446.1094   21510441.6334         51.0004
        43.5004
 07  1  1  0  5 30.0000000  0  7G13G31G25G23G27G19G16
  -7196011.68749  -5590302.47747  22854183.2734   22854180.0704         46.0004
        30.7504
  -1292268.96148  -2019373.95646  23837443.6724   23837442.4574         33.5004
        19.5004
  -6909066.52749  -5851028.55747  22823809.4454   22823806.6804         43.0004
        34.0004
 -10041512.57049  -8942544.12947  22518055.1414   22518048.3754         46.0004
        37.7504
  -2791599.83649  -2031129.45946  24751051.3754   24751047.0204         36.2504
        20.5004
 -14744428.23049 -12819925.29148  20754644.2114   20754638.0124         51.0004
        47.0004
 -14664554.43749 -11807075.24048  21516789.9384   21516785.0944         51.5004
        42.7504
 07  1  1  0  6  0.0000000  0  7G13G31G25G23G27G19G16
  -7188269.45749  -5584269.59747  22855656.8754   22855652.3834         46.2504
        31.5004
  -1193447.60548  -1942370.34846  23856249.2504   23856248.2274         32.0004
        16.7504
  -6818475.17649  -5780437.94147  22841048.7114   22841046.4024         44.5004
        34.0004
  -9982319.75049  -8896419.87747  22529319.2424   22529313.0274         47.0004
        38.5004
  -2889476.74649  -2107397.19546  24732426.1644   24732422.2584         36.7504
        21.5004
 -14785046.29749 -12851575.73248  20746914.9614   20746909.4694         50.7504
        47.2504
 -14631083.44949 -11780993.97048  21523158.9384   21523154.2934         51.2504
        42.7504
 07  1  1  0  6 30.0000000  0  7G13G31G25G23G27G19G16
  -7179968.96149  -5577801.67947  22857236.1334   22857232.1054         46.0004
        31.0004
  -1094430.25458  -1865214.09456  23875092.2034   23875090.7544         33.2504
        16.7504
  -6727622.81649  -5709643.95747  22858338.2974   22858334.8204         45.7504
        35.0004
  -9922744.57449  -8849997.69747  22540655.9614   22540648.9104         47.0004
        37.5004
  -2987306.32049  -2183628.02946  24713810.0164   24713805.7114         37.2504
        19.7504
 -14825224.71149 -12882883.57648  20739269.4454   20739263.4184         52.0004
        47.2504
 -14597477.44149 -11754807.49748  21529554.2894   21529549.6764         52.0004
        42.5004
 07  1  1  0  7  0.0000000  0  7G13G31G25G23G27G19G16
  -7171111.62149  -5570899.87447  22858921.1254   22858917.7624         45.7504
        28.7504
   -995218.80948  -1787906.50846  23893971.3284   23893970.5314         35.2504
        14.7504
  -6636510.99249  -5638647.76847  22875675.5004   22875672.8404         45.5004
        34.5004
  -9862789.86349  -8803279.73647  22552064.7034   22552058.3524         47.5004
        36.0004
  -3085086.54349  -2259820.45646  24695203.0314   24695198.5554         36.2504
        20.7504
 -14864963.09849 -12913848.54348  20731707.2664   20731701.6054         51.0004
        47.0004
 -14563736.35249 -11728515.75348  21535974.6094   21535970.3014         51.0004
        42.5004
 07  1  1  0  7 30.0000000  0  7G13G31G25G23G27G19G16
  -7161697.98049  -5563564.60947  22860713.0634   22860708.5824         45.0004
        27.7504
   -895814.86749  -1710448.96946  23912889.9774   23912888.1564         37.0004
        13.7504
  -6545141.50849  -5567450.81447  22893062.5314   22893060.2584         44.5004
        34.2504
  -9802458.64849  -8756268.44147  22563545.4384   22563539.0594         45.7504
        35.5004
  -3182815.01649  -2335972.46646  24676605.8674   24676601.9774         36.0004
        21.2504
 -14904261.41849 -12944470.61148  20724229.0234   20724223.1214         51.2504
        47.0004
 -14529859.88349 -11702118.51348  21542421.3134   21542417.0514         52.0004
        42.7504
 07  1  1  0  8  0.0000000  0  7G13G31G25G23G27G19G16
  -7151729.37949  -5555796.85247  22862610.3754   22862605.6994         47.0004
        28.7504
   -796220.855 8                  23931843.391                          30.500

  -6453516.20349  -5496054.54347  22910498.3204   22910496.0594         43.5004
        34.0004
  -9741753.91449  -8708966.05747  22575096.9384   22575090.5314         43.0004
        33.0004
  -3280489.55149  -2412082.48046  24658018.7034   24658015.2894         36.0004
        22.5004
 -14943119.87149 -12974749.91948  20716834.6644   20716828.5904         52.0004
        47.5004
 -14495847.68749 -11675615.52948  21548893.5084   21548889.1604         51.0004
        42.5004
 07  1  1  0  8 30.0000000  0  6G13G25G23G27G19G16
  -7141207.04749  -5547597.63847  22864612.4694   22864607.9064         47.0004
        30.5004
  -6361636.76249  -5424460.21747  22927982.5784   22927979.8244         45.0004
        34.2504
  -9680678.09849  -8661374.56447  22586719.3134   22586713.6054         43.7504
        33.7504
  -3378108.09449  -2488148.86046  24639444.1254   24639439.1564         37.7504
        23.2504
 -14981538.37549 -13004686.40748  20709523.6724   20709518.1214         51.2504
        47.5004
 -14461699.13749 -11649006.28948  21555391.8984   21555387.2504         51.5004
        42.5004
 07  1  1  0  9  0.0000000  0  6G13G25G23G27G19G16
  -7130133.07449  -5538968.58047  22866719.7974   22866715.3984         47.2504
        30.2504
  -6269506.29349  -5352670.28147  22945514.5554   22945511.9574         44.2504
        34.2504
  -9619235.49549  -8613497.19447  22598411.6334   22598405.8404         43.5004
        33.5004
  -3475669.73849  -2564170.93846  24620878.1804   24620873.6524         38.2504
        22.7504
 -15019517.88749 -13034280.83148  20702296.6094   20702290.7624         52.0004
        47.5004
 -14427415.10549 -11622291.48048  21561916.0004   21561911.1764         50.5004
        43.2504
 07  1  1  0  9 30.0000000  0  6G13G25G23G27G19G16
  -7118506.82849  -5529909.15147  22868931.8054   22868928.1254         47.0004
        31.0004
  -6177124.78149  -5280684.74247  22963093.8754   22963091.1024         43.5004
        33.5004
  -9557427.39849  -8565335.11447  22610173.5704   22610166.6804         45.0004
        33.0004
  -3573170.55949  -2640145.59046  24602323.6644   24602320.0394         37.2504
        25.0004
 -15057056.50449 -13063531.71248  20695153.0164   20695147.1914         51.7504
        47.5004
 -14392993.48849 -11595469.46248  21568466.3284   21568461.7424         51.0004
        43.0004
 07  1  1  0 10  0.0000000  0  7G13G31G25G23G27G19G16
  -7106330.06249  -5520420.79047  22871249.4224   22871244.8364         45.7504
        30.7504
                                  24008004.727                          32.500

  -6084494.79749  -5208505.56647  22980721.1024   22980718.1254         44.2504
        33.5004
  -9495257.69549  -8516891.21347  22622003.5634   22621997.1024         45.2504
        34.0004
  -3670609.20349  -2716071.80347  24583781.5394   24583778.6954         36.5004
        26.2504
 -15094155.50449 -13092440.02748  20688093.6564   20688087.7034         52.5004
        47.5004
 -14358434.48449 -11568540.38648  21575042.3444   21575037.8594         51.0004
        43.0004
 07  1  1  0 10 30.0000000  0  7G13G31G25G23G27G19G16
  -7093604.44149  -5510504.73947  22873670.9694   22873667.0554         46.0004
        31.5004
    110556.367 8                  24027133.008                          33.750

  -5991618.51249  -5136134.49247  22998395.2424   22998392.3204         44.2504
        33.5004
  -9432729.43049  -8468167.94347  22633902.7664   22633897.3754         44.7504
        34.0004
  -3767983.79349  -2791948.12546  24565252.5704   24565248.5044         38.2504
        25.5004
 -15130815.33649 -13121006.13948  20681117.4144   20681111.5554         51.5004
        47.5004
 -14323738.34049 -11541504.44848  21581645.2664   21581640.3874         50.0004
        42.5004
 07  1  1  0 11  0.0000000  0  7G13G31G25G23G27G19G16
  -7080331.05549  -5500161.86047  22876196.8594   22876192.3594         45.7504
        30.0004
    211255.36749  -1449666.41856  24046295.9224   24046291.6134         36.5004
        17.7504
  -5898497.68049  -5063572.83047  23016114.8054   23016112.4344         44.7504
        32.2504
  -9369845.44549  -8419167.46147  22645869.6954   22645863.8794         44.7504
        33.2504
  -3865291.93049  -2867772.62847  24546734.7504   24546731.8244         39.0004
        25.7504
 -15167035.46949 -13149229.61448  20674224.8134   20674219.0824         51.2504
        47.5004
 -14288904.60949 -11514361.28948  21588273.7194   21588269.1564         50.7504
        42.5004
 07  1  1  0 11 30.0000000  0  7G13G31G25G23G27G19G16
  -7066511.46549  -5489393.38747  22878826.7814   22878822.5944         46.2504
        30.2504
    312131.91449  -1371061.42046  24065491.4844   24065488.7934         38.0004
        19.2504
  -5805134.17649  -4990822.12447  23033881.4844   23033879.5594         43.7504
        33.0004
  -9306608.78149  -8369892.18247  22657902.7894   22657896.2074         44.0004
        33.2504
  -3962531.44949  -2943543.63547  24528231.3444   24528227.6134         40.0004
        26.2504
 -15202816.07049 -13177110.61848  20667416.2114   20667410.3364         52.0004
        47.5004
 -14253932.74649 -11487110.52048  21594928.7194   21594924.0474         50.5004
        42.5004
 07  1  1  0 12  0.0000000  0  7G13G31G25G23G27G19G16
  -7052146.52749  -5478199.95647  22881560.1024   22881556.3404         45.7504
        29.2504
    413184.41849  -1292319.31046  24084721.3984   24084718.8914         38.2504
        21.0004
  -5711529.64549  -4917883.61347  23051694.5004   23051691.6724         44.5004
        34.0004
  -9243022.18049  -8320344.18447  22670002.6254   22669996.9414         43.7504
        33.5004
  -4059700.11749  -3019259.49447  24509740.6884   24509737.1684         41.5004
        26.5004
 -15238157.16449 -13204649.14448  20660690.9454   20660684.7274         51.5004
        47.5004
 -14218822.10549 -11459751.59248  21601610.0314   21601605.3364         50.0004
        42.7504
 07  1  1  0 12 30.0000000  0  7G13G31G25G23G27G19G16
  -7037237.38749  -5466582.45547  22884396.6644   22884392.6844         45.5004
        29.7504
    514411.33649  -1213441.36746  24103984.5784   24103980.3834         36.2504
        17.7504
  -5617685.80149  -4844758.59947  23069552.1024   23069549.3834         44.2504
        33.5004
  -9179088.48849  -8270525.73847  22682168.8834   22682161.7464         43.2504
        32.0004
  -4156795.42649  -3094918.17547  24491264.2034   24491260.7074         42.5004
        26.7504
 -15273058.82049 -13231845.24848  20654049.4064   20654043.3834         52.5004
        47.5004
 -14183572.23049 -11432284.17648  21608317.9064   21608312.8594         50.5004
        41.7504
 07  1  1  0 13  0.0000000  0  7G13G31G25G23G27G19G16
  -7021786.52349  -5454542.83947  22887337.1414   22887332.9844         46.5004
        29.7504
    615809.32449  -1134430.05146  24123280.1334   24123276.1724         37.2504
        17.7504
  -5523605.60949  -4771449.40647  23087455.1254   23087451.1764         43.2504
        31.5004
  -9114812.09449  -8220440.24247  22694400.5394   22694394.3984         43.7504
        33.0004
  -4253816.32449  -3170518.87646  24472801.0944   24472797.6914         41.5004
        24.2504
 -15307522.28549 -13258699.90248  20647491.1174   20647485.2304         52.0004
        47.7504
 -14148183.91849 -11404708.89248  21615051.9534   21615047.1564         50.5004
        42.2504
 07  1  1  0 13 30.0000000  0  7G13G31G25G23G27G19G16
  -7005794.39849  -5442081.46847  22890380.5944   22890377.0084         46.5004
        29.0004
    717377.61348  -1055285.98046  24142607.4774   24142603.1174         32.5004
        16.2504
  -5429290.18749  -4697956.91647  23105402.1954   23105399.0474         42.2504
        30.2504
  -9050194.99249  -8170089.28247  22706696.3364   22706691.6024         42.5004
        31.2504
  -4350759.65649  -3246059.12746  24454353.8524   24454350.0864         42.2504
        23.5004
 -15341546.64849 -13285212.40148  20641016.6024   20641010.7034         52.2504
        47.7504
 -14112656.02749 -11377024.83848  21621812.7664   21621807.4924         50.7504
        42.0004
 07  1  1  0 14  0.0000000  0  7G13G31G25G23G27G19G16
  -6989262.98449  -5429199.85047  22893526.1484   22893522.7234         47.7504
        30.2504
    819113.69948   -976011.14846  24161967.1254   24161962.0554         32.0004
        14.7504
  -5334742.03549  -4624283.10147  23123394.6334   23123392.1294         44.7504
        33.5004
  -8985240.84049  -8119475.71247  22719056.7814   22719050.0824         44.7504
        29.7504
  -4447624.07849  -3321537.90147  24435920.7344   24435917.3554         42.5004
        26.0004
 -15375133.00849 -13311383.58448  20634625.3134   20634619.1214         52.0004
        47.5004
 -14076988.52049 -11349232.00748  21628600.3834   21628595.1294         51.0004
        42.0004
 07  1  1  0 14 30.0000000  0  6G13G25G23G27G19G16
  -6972192.84049  -5415898.48447  22896775.2814   22896770.6564         47.2504
        31.5004
  -5239962.12949  -4550428.68847  23141430.8594   23141428.0944         43.5004
        35.0004
  -8919951.68449  -8068601.05947  22731481.2664   22731473.8094         44.5004
        30.2504
  -4544406.15249  -3396952.52447  24417503.9304   24417500.3954         41.0004
        25.7504
 -15408280.18049 -13337212.55748  20628317.7424   20628312.0634         52.0004
        48.0004
 -14041180.12149 -11321329.37748  21635414.0784   21635409.5664         50.5004
        42.2504
 07  1  1  0 15  0.0000000  0  6G13G25G23G27G19G16
  -6954586.41449  -5402179.18847  22900125.2664   22900120.5514         48.0004
        31.7504
  -5144953.54749  -4476396.08947  23159509.7034   23159507.3984         43.5004
        33.7504
  -8854331.82849  -8017468.73347  22743968.1884   22743962.0394         43.7504
        30.2504
  -4641105.04749  -3472302.31646  24399103.6644   24399098.9344         41.5004
        25.0004
 -15440989.86349 -13362700.62048  20622093.0864   20622087.5634         52.5004
        48.0004
 -14005231.51649 -11293317.49948  21642255.0474   21642250.3404         50.0004
        42.0004
 07  1  1  0 15 30.0000000  0  6G13G25G23G27G19G16
  -6936444.18049  -5388042.39547  22903577.5394   22903573.3634         44.2504
        31.5004
  -5049717.16849  -4402186.04347  23177633.1254   23177629.9884         43.2504
        31.5004
  -8788383.35949  -7966080.33647  22756517.8444   22756512.4104         44.5004
        30.7504
  -4737717.46949  -3547584.72447  24380718.4844   24380714.7464         41.5004
        26.2504
 -15473261.27049 -13387847.16948  20615952.0474   20615946.2894         52.2504
        48.0004
 -13969141.66049 -11265195.56448  21649122.9454   21649118.1914         51.0004
        42.0004
 07  1  1  0 16  0.0000000  0  6G13G25G23G27G19G16
  -6917768.31649  -5373489.81347  22907131.6024   22907127.7154         46.7504
        32.0004
  -4954255.76649  -4327800.57747  23195799.4064   23195794.7544         44.5004
        30.0004
  -8722110.04749  -7914438.82847  22769128.5784   22769122.5124         41.0004
        26.2504
  -4834241.75049  -3622798.41246  24362350.6804   24362347.0944         41.5004
        25.0004
 -15505095.19149 -13412652.81848  20609894.4454   20609888.5124         50.7504
        48.2504
 -13932910.62149 -11236963.60148  21656017.1484   21656012.2814         51.2504
        42.0004
 07  1  1  0 16 30.0000000  0  7G13G31G25G23G27G19G16
  -6898560.24249  -5358522.49447  22910787.1414   22910783.3204         44.2504
        31.2504
     94356.14818                  24259234.930                          33.250

  -4858571.15649  -4253241.13847  23214007.8054   23214004.0944         44.2504
        31.5004
  -8655514.82849  -7862546.49247  22781801.9144   22781795.8204         41.5004
        27.7504
  -4930675.59049  -3697941.67746  24344000.1024   24343996.5084         38.0004
        25.2504
 -15536491.96549 -13437117.81948  20603919.5004   20603913.7424         50.0004
        47.7504
 -13896537.91049 -11208621.24748  21662938.8054   21662934.2074         50.7504
        41.7504
 07  1  1  0 17  0.0000000  0  7G13G31G25G23G27G19G16
  -6878821.28549  -5343141.49247  22914542.9844   22914538.8054         44.2504
        29.7504
    197062.33649   -787612.49656  24278780.2974   24278775.2734         38.7504
        17.2504
  -4762664.87549  -4178509.01847  23232257.4454   23232254.7774         43.0004
        31.7504
  -8588600.33649  -7810405.36947  22794535.5474   22794529.3954         42.5004
        27.2504
  -5027016.69549  -3773012.64946  24325666.4064   24325662.6414         37.0004
        22.7504
 -15567451.33249 -13461242.01048  20598028.6254   20598022.3164         52.5004
        48.2504
 -13860022.63349 -11180167.78948  21669887.3594   21669882.6094         50.5004
        42.0004
 07  1  1  0 17 30.0000000  0  7G13G31G25G23G27G19G16
  -6858553.55149  -5327348.52347  22918399.7974   22918395.4064         45.0004
        29.7504
    299922.85549   -707461.60546  24298353.0704   24298350.1094         40.0004
        20.5004
  -4666539.43749  -4103606.16347  23250549.7034   23250546.2974         44.0004
        31.0004
  -8521370.32449  -7758018.32447  22807329.1334   22807322.6054         40.5004
        27.5004
  -5123263.30549  -3848009.96346  24307350.9844   24307347.3054         38.2504
        22.7504
 -15597974.45749 -13485026.25148  20592219.7974   20592214.2894         51.5004
        48.0004
 -13823365.24649 -11151603.63148  21676863.3984   21676858.2624         51.5004
        42.0004
 07  1  1  0 18  0.0000000  0  7G13G31G25G23G27G19G16
  -6837758.39549  -5311144.54347  22922357.2974   22922353.2274         39.5004
        29.2504
    402936.09849   -627191.65046  24317956.5164   24317951.9574         41.2504
        22.0004
  -4570196.71149  -4028533.98447  23268883.0704   23268879.6334         43.2504
        30.0004
  -8453827.96149  -7705387.91647  22820181.7504   22820174.4614         41.2504
        26.0004
  -5219412.52748  -3922931.49446  24289054.4224   24289050.0824         35.7504
        24.5004
 -15628061.14549 -13508470.43148  20586494.7274   20586489.3204         51.0004
        48.2504
 -13786564.95349 -11122928.09048  21683866.0474   21683861.0274         50.7504
        41.7504
 07  1  1  0 18 30.0000000  0  7G13G31G25G23G27G19G16
  -6816437.08649  -5294530.57647  22926414.3444   22926410.5164         43.0004
        28.5004
    506100.38749   -546804.06146  24337586.9534   24337585.0044         40.7504
        22.0004
  -4473638.57049  -3953293.90847  23287257.5004   23287253.8634         43.7504
        28.5004
  -8385975.82049  -7652516.13946  22833092.8364   22833086.6054         39.2504
        24.5004
  -5315462.38348  -3997775.50446  24270776.6564   24270772.0394         35.2504
        23.7504
 -15657712.01649 -13531574.99148  20580852.1954   20580846.6994         51.5004
        48.2504
 -13749621.43449 -11094140.95648  21690895.9384   21690891.7234         51.0004
        41.7504
 07  1  1  0 19  0.0000000  0  7G13G31G25G23G27G19G16
  -6794591.29349  -5277507.92147  22930571.2424   22930567.5824         46.0004
        29.7504
    609414.06649   -466300.02046  24357246.9924   24357244.6214         41.7504
        21.2504
  -4376866.82849  -3877887.41147  23305672.1024   23305668.7854         41.5004
        27.7504
  -8317817.22749  -7599405.65647  22846064.3524   22846057.2704         40.0004
        26.2504
  -5411410.45349  -4072540.15246  24252518.8524   24252514.9024         38.2504
        24.7504
 -15686926.76649 -13554339.72648  20575292.7504   20575286.6684         52.0004
        48.0004
 -13712533.94949 -11065241.63948  21697953.4064   21697949.0824         50.0004
        41.7504
 07  1  1  0 19 30.0000000  0  7G13G31G25G23G27G19G16
  -6772222.63349  -5260077.83447  22934828.3594   22934823.3364         46.2504
        29.0004
    712875.43849   -385680.86446  24376936.0944   24376932.1954         42.5004
        22.7504
  -4279883.29749  -3802315.90647  23324127.8524   23324125.0744         41.7504
        29.0004
  -8249354.99649  -7546058.47947  22859091.8364   22859085.6724         41.0004
        26.7504
  -5507254.10249  -4147223.53446  24234279.9304   24234276.3094         38.5004
        22.7504
 -15715705.86749 -13576765.01548  20569816.4384   20569810.4964         50.7504
        48.0004
 -13675302.00849 -11036229.74948  21705038.4844   21705034.0514         49.5004
        41.7504
 07  1  1  0 20  0.0000000  0  7G13G31G25G23G27G19G16
  -6749333.30949  -5242241.99947  22939184.2974   22939179.5634         46.5004
        30.5004
    816481.40649   -304949.03346  24396651.3134   24396647.4224         42.5004
        25.2504
  -4182690.75049  -3726581.51547  23342623.6094   23342620.0354         43.5004
        30.2504
  -8180593.00449  -7492477.74946  22872176.1804   22872170.6214         39.5004
        24.5004
  -5602992.28649  -4221824.64947  24216061.9534   24216058.4224         38.2504
        26.0004
 -15744050.75449 -13598851.93548  20564422.6094   20564416.8404         51.0004
        48.0004
 -13637926.03949 -11007105.64848  21712151.0474   21712147.0354         51.5004
        41.7504
 07  1  1  0 20 30.0000000  0  7G13G31G25G23G27G19G16
  -6725924.85949  -5224001.65247  22943638.7504   22943634.5164         47.5004
        32.2504
    920230.11349   -224106.01847  24416393.9534   24416389.6334         43.2504
        28.0004
  -4085291.14849  -3650685.78647  23361158.0704   23361154.4924         43.0004
        28.0004
  -8111534.34049  -7438665.83947  22885318.6644   22885312.9574         38.2504
        25.7504
  -5698622.54349  -4296341.80647  24197863.5004   24197860.4734         38.2504
        27.0004
 -15771961.31649 -13620600.41248  20559111.4064   20559105.5274         52.0004
        48.2504
 -13600405.40249 -10977868.80948  21719291.0004   21719286.7194         50.2504
        41.5004
 07  1  1  0 21  0.0000000  0  7G13G31G25G23G27G19G16
  -6701998.21549  -5205357.54147  22948191.1804   22948188.2664         48.0004
        31.7504
   1024120.88349   -143152.27646  24436163.1334   24436159.5864         41.5004
        25.5004
  -3987685.42249  -3574629.42847  23379731.4304   23379728.2974         41.5004
        27.0004
  -8042181.01649  -7384624.35046  22898515.9304   22898509.8914         38.2504
        25.0004
  -5794141.37549  -4370772.03447  24179686.9224   24179683.7814         39.2504
        25.7504
 -15799436.96949 -13642010.01848  20553882.6724   20553876.7464         51.5004
        48.2504
 -13562738.57049 -10948518.05148  21726458.8204   21726454.2934         50.5004
        41.7504
 07  1  1  0 21 30.0000000  0  7G13G31G25G23G27G19G16
  -6677556.56249  -5186312.10247  22952842.7584   22952838.0984         48.2504
        31.0004
   1128150.52049    -62090.37247  24455959.8594   24455955.9224         39.7504
        26.0004
  -3889876.85549  -3498414.99547  23398343.6094   23398341.8204         42.0004
        29.7504
  -7972537.65249  -7330356.84146  22911768.6254   22911761.2704         41.2504
        23.0004
  -5889547.80549  -4445114.65446  24161531.4144   24161527.7974         37.5004
        24.5004
 -15826479.33649 -13663081.99648  20548736.6954   20548730.5664         51.7504
        48.0004
 -13524926.78149 -10919054.34748  21733654.1024   21733649.7504         50.2504
        41.5004
 07  1  1  0 22  0.0000000  0  7G13G31G25G23G27G19G16
  -6652600.59449  -5166865.89647  22957591.5314   22957587.3754         47.0004
        31.7504
   1232317.76249     19078.80847  24475782.5394   24475779.5824         42.5004
        27.2504
  -3791866.75049  -3422043.60047  23416995.2344   23416992.8404         44.2504
        32.2504
  -7902606.74249  -7275865.29246  22925075.3524   22925069.0124         41.2504
        22.7504
  -5984838.58649  -4519367.26046  24143398.2274   24143395.0944         37.7504
        24.0004
 -15853087.97749 -13683815.99248  20543673.2194   20543667.6374         51.7504
        48.2504
 -13486968.53549 -10889476.51148  21740877.2974   21740872.7894         50.5004
        41.7504
 07  1  1  0 22 30.0000000  0  7G13G31G25G23G27G19G16
  -6627132.61749  -5147020.73347  22962437.7504   22962434.6294         46.0004
        32.0004
   1336620.03949    100353.20847  24495630.5784   24495628.8284         44.5004
        29.0004
  -3693657.75449  -3345517.18047  23435683.3284   23435680.7734         44.2504
        31.2504
  -7832391.79749  -7221152.35647  22938437.6334   22938431.6414         40.5004
        26.2504
  -6080012.03949  -4593528.37646  24125287.0314   24125283.6914         36.7504
        22.7504
 -15879264.20749 -13704213.06548  20538692.2814   20538686.6254         52.2504
        48.5004
 -13448863.69149 -10859784.46048  21748128.5474   21748123.9494         50.7504
        41.5004
 07  1  1  0 23  0.0000000  0  7G13G31G25G23G27G19G16
  -6601154.25449  -5126777.87047  22967380.9614   22967377.2704         45.7504
        30.0004
   1441055.68849    181731.46947  24515503.7424   24515502.2894         45.0004
        29.7504
  -3595251.34049  -3268836.95147  23454408.5634   23454406.4804         41.2504
        29.5004
  -7761895.65249  -7166220.33147  22951852.8834   22951846.5824         41.0004
        26.7504
  -6175065.73849  -4667596.24447  24107200.1024   24107196.4614         38.7504
        26.7504
 -15905008.26249 -13724273.35848  20533793.1724   20533787.4144         51.5004
        48.2504
 -13410611.96149 -10829977.93548  21755407.6884   21755403.2504         50.0004
        41.7504
 07  1  1  0 23 30.0000000  0  7G13G31G25G23G27G19G16
  -6574667.07849  -5106138.56347  22972421.9064   22972417.1174         44.7504
        30.5004
   1545623.13749    263212.48047  24535402.7734   24535400.8284         44.0004
        30.5004
  -3496649.56649  -3192004.47247  23473172.6564   23473169.7114         42.7504
        28.7504
  -7691121.40249  -7111071.60246  22965320.7974   22965314.2584         40.5004
        23.7504
  -6269997.11349  -4741568.70447  24089134.7974   24089131.4184         39.2504
        26.0004
 -15930319.99249 -13743996.79148  20528976.4694   20528970.5704         51.2504
        48.0004
 -13372212.65649 -10800056.41548  21762714.6334   21762710.3834         50.5004
        42.2504
 07  1  1  0 24  0.0000000  0  7G13G31G25G23G27G19G16
  -6547673.41049  -5085104.58747  22977559.3364   22977555.1644         46.2504
        32.0004
   1650319.64849    344794.04547  24555325.5234   24555323.4964         43.0004
        28.5004
  -3397855.13349  -3115021.83347  23491973.2734   23491969.7664         43.5004
        30.5004
  -7620072.71149  -7055709.00246  22978840.0394   22978835.0314         38.2504
        25.5004
  -6364804.41849  -4815444.54446  24071093.5394   24071089.7734         40.0004
        25.5004
 -15955200.82849 -13763384.45548  20524242.1644   20524236.2034         52.2504
        48.5004
 -13333665.82449 -10770019.94948  21770050.3364   21770045.3054         50.7504
        41.5004
 07  1  1  0 24 30.0000000  0  7G13G31G25G23G27G19G16
  -6520175.02349  -5063677.25247  22982790.8984   22982787.5744         45.2504
        31.0004
   1755143.57449    426474.88447  24575272.6414   24575270.9494         41.7504
        27.2504
  -3298869.69949  -3037890.39147  23510809.3204   23510807.3054         41.5004
        30.0004
  -7548752.58649  -7000134.97246  22992411.7114   22992406.5234         38.5004
        25.0004
  -6459484.98049  -4889221.60247  24053076.3204   24053072.5274         40.7504
        27.5004
 -15979651.07049 -13782436.58448  20519589.3754   20519583.3554         52.5004
        48.5004
 -13294970.73849 -10739867.94848  21777413.6484   21777408.4844         50.0004
        41.7504
 07  1  1  0 25  0.0000000  0  7G13G31G25G23G27G19G16
  -6492173.76649  -5041858.14447  22988120.1884   22988115.2154         45.0004
        31.7504
   1860092.89149    508253.36647  24595244.6804   24595242.1414         41.5004
        25.7504
  -3199695.37549  -2960611.79847  23529680.8204   23529679.0084         41.2504
        29.0004
  -7477163.97749  -6944351.71346  23006035.3444   23006029.0984         41.5004
        25.2504
  -6554036.48449  -4962898.05647  24035083.5944   24035080.3914         41.0004
        25.7504
 -16003670.94549 -13801153.37148  20515018.5084   20515012.5234         51.7504
        48.7504
 -13256127.10549 -10709600.21048  21784805.1724   21784800.7704         49.5004
        41.5004
 07  1  1  0 25 30.0000000  0  7G13G31G25G23G27G19G16
  -6463671.22349  -5019648.38247  22993543.5474   22993539.9264         44.2504
        28.7504
   1965165.84849    590128.25347  24615239.3914   24615236.9304         43.7504
        27.7504
  -3100333.92649  -2883187.41947  23548589.4454   23548587.3404         43.0004
        31.5004
  -7405310.05149  -6888361.69947  23019708.5234   23019701.8874         43.2504
        29.2504
  -6648456.21949  -5036471.85847  24017115.5394   24017112.6484         41.2504
        26.5004
 -16027261.08649 -13819535.30148  20510529.5164   20510523.5124         52.5004
        48.7504
 -13217133.94549 -10679215.96048  21792225.3524   21792220.7734         50.2504
        41.5004
 07  1  1  0 26  0.0000000  0  7G13G31G25G23G27G19G16
  -6434669.60549  -4997049.76147  22999062.4064   22999059.0704         44.0004
        30.0004
   2070360.50849    672097.95047  24635257.7274   24635255.1024         43.5004
        30.0004
  -3000787.56649  -2805618.88547  23567532.9144   23567529.2734         42.5004
        29.2504
  -7333194.02049  -6832167.43347  23033431.7344   23033425.8834         45.7504
        31.0004
  -6742742.24649  -5109941.52947  23999173.9694   23999170.2304         41.2504
        27.0004
 -16050421.60549 -13837582.45948  20506122.0084   20506116.3134         51.0004
        48.5004
 -13177991.44549 -10648715.33348  21799673.8674   21799669.3444         49.5004
        40.7504
 07  1  1  0 26 30.0000000  0  7G13G31G25G23G27G19G16
  -6405171.00449  -4974063.88247  23004676.1564   23004672.3324         44.5004
        29.7504
   2175674.54349    754160.68847  24655298.2664   24655296.5354         44.0004
        30.0004
  -2901058.68749  -2727908.09747  23586510.1644   23586506.3244         43.0004
        27.7504
  -7260819.53149  -6775771.77447  23047204.7664   23047198.1844         45.2504
        31.2504
  -6836892.51249  -5183305.32247  23981257.5554   23981254.2234         41.7504
        27.0004
 -16073153.87149 -13855295.91548  20501796.5634   20501790.2034         51.0004
        48.5004
 -13138699.13749 -10618097.97048  21807150.9384   21807146.5124         49.2504
        41.2504
 07  1  1  0 27  0.0000000  0  7G13G31G25G23G27G19G16
  -6375177.25049  -4950692.17947  23010383.8444   23010378.9574         45.2504
        30.2504
   2281105.81649    836314.73347  24675360.8754   24675358.6334         43.0004
        29.5004
  -2801149.00049  -2650056.50047  23605522.8054   23605520.5204         41.7504
        29.0004
  -7188189.27049  -6719176.80647  23061025.3594   23061019.8484         43.7504
        31.2504
  -6930904.25049  -5256561.23947  23963368.5394   23963364.9574         42.5004
        27.5004
 -16095457.93749 -13872675.72548  20497551.9844   20497545.8444         51.5004
        48.2504
 -13099256.02349 -10587363.09848  21814656.9454   21814652.1134         49.2504
        41.0004
 07  1  1  0 27 30.0000000  0  7G13G31G25G23G27G19G16
  -6344690.67649  -4926936.42647  23016184.4144   23016181.2154         46.0004
        31.2504
   2386652.21549    918558.47747  24695446.2664   24695443.9454         42.2504
        28.2504
  -2701061.27349  -2572066.18147  23624568.9224   23624566.9024         42.0004
        30.7504
  -7115307.19149  -6662385.61547  23074894.8524   23074888.7384         44.5004
        32.0004
  -7024775.59449  -5329707.72847  23945504.9844   23945501.9964         42.5004
        28.0004
 -16117335.54749 -13889723.21148  20493388.9144   20493383.1804         50.7504
        48.7504
 -13059662.50049 -10556511.02348  21822191.2814   21822186.4614         49.0004
        41.5004
 07  1  1  0 28  0.0000000  0  7G13G31G25G23G27G19G16
  -6313712.39849  -4902797.56647  23022080.5004   23022076.5314         46.2504
        31.7504
   2492312.72749   1000891.14447  24715552.9064   24715550.2734         41.0004
        26.7504
  -2600796.90249  -2493938.17847  23643649.2894   23643645.9924         41.5004
        31.0004
  -7042175.36349  -6605399.81547  23088811.3284   23088805.1844         43.7504
        31.5004
  -7118503.59049  -5402742.52347  23927669.4774   23927666.1954         43.0004
        28.2504
 -16138785.78149 -13906437.68248  20489307.0164   20489301.1524         50.0004
        48.5004
 -13019917.12549 -10525540.63748  21829754.8204   21829750.1764         48.2504
        41.0004
 07  1  1  0 28 30.0000000  0  7G13G31G25G23G27G19G16
  -6282244.96149  -4878277.49347  23028068.1174   23028064.0084         46.2504
        33.5004
   2598084.74649   1083310.66646  24735680.3754   24735678.1954         39.5004
        24.2504
  -2500357.74249  -2415673.96647  23662761.1564   23662759.6024         41.0004
        27.0004
  -6968797.62149  -6548222.39647  23102775.0084   23102768.3284         43.0004
        32.2504
  -7212086.00049  -5475663.85447  23909860.7194   23909857.4264         43.0004
        27.2504
 -16159809.57049 -13922819.85448  20485306.1954   20485300.3484         50.7504
        48.5004
 -12980019.98049 -10494451.97348  21837346.7194   21837341.8164         48.5004
        40.5004
 07  1  1  0 29  0.0000000  0  7G13G31G25G23G27G19G16
  -6250291.72749  -4853378.87247  23034148.4924   23034144.7704         41.5004
        32.0004
   2703965.55549   1165814.98446  24755828.9534   24755826.8984         39.5004
        24.2504
  -2399747.07449  -2337276.10547  23681907.4064   23681905.3244         40.5004
        29.0004
  -6895177.89149  -6490856.43747  23116784.1174   23116778.2734         43.7504
        33.0004
  -7305521.06649  -5548470.39147  23892081.1644   23892076.6454         43.2504
        28.7504
 -16180408.41449 -13938870.90948  20481386.5084   20481380.5634         50.7504
        49.0004
 -12939971.14149 -10463245.11048  21844968.0394   21844963.3954         49.5004
        41.0004
 07  1  1  0 29 30.0000000  0  7G13G31G25G23G27G19G16
  -6217853.16049  -4828102.09947  23040321.4924   23040317.7814         45.0004
        32.2504
   2809954.03949   1248403.22846  24775998.7194   24775996.3054         40.0004
        21.5004
  -2298966.20349  -2258745.67447  23701085.0784   23701083.5434         39.0004
        29.7504
  -6821318.44949  -6433303.71347  23130839.3054   23130832.7194         44.0004
        30.7504
  -7398805.54749  -5621159.58747  23874329.3834   23874325.6214         42.2504
        28.0004
 -16200582.23849 -13954590.77648  20477547.8594   20477542.0554         51.5004
        49.0004
 -12899769.45349 -10431919.16448  21852618.1254   21852613.7774         49.7504
        41.5004
 07  1  1  0 30  0.0000000  0  7G13G31G25G23G27G19G16
  -6184931.33649  -4802448.75247  23046585.8914   23046581.8874         46.0004
        29.7504
   2916048.46549   1331073.94846  24796187.6564   24796185.4614         41.0004
        22.7504
  -2198016.91849  -2180083.98347  23720295.8444   23720293.3554         38.5004
        29.5004
  -6747222.35249  -6375566.50847  23144938.9224   23144932.8364         42.0004
        29.0004
  -7491937.14849  -5693729.67047  23856606.9844   23856603.9804         43.5004
        28.2504
 -16220331.54349 -13969979.84148  20473789.4064   20473783.7424         51.0004
        48.7504
 -12859414.45749 -10400473.72348  21860297.6334   21860292.8754         49.7504
        40.7504
 07  1  1  0 30 30.0000000  0  7G13G31G25G23G27G19G16
  -6151529.17249  -4776421.14247  23052942.8834   23052938.7624         42.5004
        29.0004
   3022245.68449   1413824.79647  24816397.0164   24816394.2194         43.2504
        26.2504
  -2096902.03949  -2101293.29847  23739536.6884   23739534.6024         40.0004
        28.2504
  -6672893.57049  -6317648.01647  23159082.5944   23159077.2894         43.0004
        28.0004
  -7584914.29349  -5766179.40747  23838914.0944   23838910.9264         43.2504
        28.0004
 -16239657.88749 -13985039.33648  20470111.8594   20470105.6564         51.2504
        49.0004
 -12818906.28149 -10368908.93248  21868005.4924   21868001.2854         49.0004
        40.5004
 07  1  1  0 31  0.0000000  0  8G13G31G25G23G27G19G11G16
  -6117648.59049  -4750020.69347  23059390.1414   23059385.8164         45.2504
        29.2504
   3128544.16049   1496654.47646  24836624.3284   24836622.5984         39.2504
        22.7504
  -1995623.66449  -2022375.13947  23758809.5004   23758806.7814         41.0004
        28.5004
  -6598335.41049  -6259550.79747  23173271.2194   23173265.1884         44.5004
        27.0004
  -7677734.30949  -5838506.70847  23821250.9774   23821247.9264         42.2504
        29.7504
 -16258561.48049 -13999769.41648  20466514.5164   20466507.9304         51.0004
        48.7504
   -437042.73418                  24452751.031                          30.250

 -12778244.15649 -10337224.19748  21875743.5704   21875738.8524         49.0004
        40.5004
 07  1  1  0 31 30.0000000  0  8G13G31G25G23G27G19G11G16
  -6083291.63749  -4723249.06047  23065927.9694   23065924.6564         44.5004
        27.2504
   3234942.04349   1579561.62746  24856872.0864   24856869.3014         38.5004
        22.5004
  -1894183.55149  -1943330.97347  23778113.0704   23778110.1054         40.7504
        28.0004
  -6523550.44149  -6201276.81346  23187502.5314   23187496.4844         44.0004
        25.2504
  -7770394.52749  -5910709.44947  23803619.0864   23803615.0514         43.7504
        29.7504
 -16277042.75049 -14014170.40248  20462997.6804   20462991.2894         50.7504
        49.0004
   -548729.58618                  24431498.805                          28.250

 -12737427.58649 -10305419.10048  21883510.8754   21883506.2814         48.5004
        40.5004
 07  1  1  0 32  0.0000000  0  7G13G31G25G23G27G19G16
  -6048460.31249  -4696107.80947  23072556.0784   23072552.2304         44.7504
        27.0004
   3341437.57449   1662544.81046  24877137.8054   24877135.0664         38.7504
        24.2504
  -1792583.85249  -1864162.48947  23797447.1334   23797443.9804         39.5004
        29.0004
  -6448542.05949  -6142828.76247  23201776.1724   23201769.5904         44.5004
        27.7504
  -7862892.54349  -5982785.79547  23786016.9534   23786012.9734         44.0004
        29.7504
 -16295102.66449 -14028243.06648  20459560.7894   20459554.9574         49.7504
        48.7504
 -12696455.95749 -10273493.19348  21891307.1484   21891302.5634         48.0004
        41.0004
 07  1  1  0 32 30.0000000  0  7G13G31G25G23G27G19G16
  -6013157.41049  -4668599.09746  23079274.1724   23079270.8874         45.5004
        25.5004
   3448027.90649   1745601.86546  24897420.9144   24897418.6884         39.5004
        22.5004
  -1690827.25449  -1784871.73447  23816810.5704   23816808.1024         40.0004
        27.7504
  -6373313.91849  -6084209.50246  23216092.0084   23216085.0204         43.7504
        25.5004
  -7955226.44949  -6054734.29547  23768446.2424   23768442.5744         43.0004
        29.2504
 -16312742.40649 -14041988.31348  20456204.3524   20456198.5164         50.2504
        49.0004
 -12655329.37149 -10241446.52648  21899133.8134   21899128.8834         47.7504
        40.2504
 07  1  1  0 33  0.0000000  0  7G13G31G25G23G27G19G16
  -5977384.89849  -4640724.44146  23086080.3524   23086076.9414         41.7504
        22.0004
   3554711.45749   1828731.57746  24917723.0314   24917719.8754         41.0004
        24.7504
  -1588915.50049  -1705460.07347  23836204.0944   23836201.0164         42.2504
        28.2504
  -6297869.18749  -6025421.46046  23230447.9534   23230441.9694         42.7504
        22.7504
  -8047393.61349  -6126552.87547  23750907.2504   23750903.9924         44.5004
        30.0004
 -16329962.54349 -14055406.60548  20452927.1804   20452921.6334         50.5004
        49.0004
 -12614046.88349 -10209278.38848  21906989.4614   21906984.6054         48.0004
        40.7504
 07  1  1  0 33 30.0000000  0  7G13G31G25G23G27G19G16
  -5941144.71549  -4612485.36546  23092977.8754   23092974.0474         43.7504
        22.0004
   3661486.56349   1911932.64146  24938041.5944   24938039.4264         38.7504
        22.5004
  -1486850.85549  -1625929.24346  23855626.2034   23855623.1724         38.2504
        25.2504
  -6222210.67649  -5966466.81646  23244846.1094   23244839.0594         43.0004
        23.2504
  -8139391.32049  -6198239.38847  23733401.1254   23733396.9414         43.0004
        29.7504
 -16346763.50449 -14068498.26848  20449730.2034   20449724.0664         51.0004
        49.0004
 -12572608.01249 -10176988.39348  21914875.0864   21914870.2424         48.5004
        40.2504
 07  1  1  0 34  0.0000000  0  7G13G31G25G23G27G19G16
  -5904439.22749  -4583883.64646  23099962.6334   23099958.3914         41.2504
        20.0004
   3768350.41449   1995202.82846  24958376.5084   24958375.1054         37.7504
        21.7504
  -1384635.47349  -1546280.99547  23875076.1804   23875075.2424         39.0004
        26.0004
  -6146342.10549  -5907348.53346  23259283.0634   23259277.7344         41.5004
        25.5004
  -8231217.63749  -6269792.39547  23715926.5164   23715923.0944         44.5004
        29.0004
 -16363146.15649 -14081263.98248  20446612.7114   20446606.6684         51.7504
        49.2504
 -12531012.80149 -10144576.55748  21922790.2584   21922785.5784         49.2504
        40.5004
 07  1  1  0 34 30.0000000  0  7G13G31G25G23G27G19G16
  -5867270.46949  -4554921.00646  23107035.7344   23107032.0434         41.0004
        20.5004
   3875301.75849   2078541.12246  24978729.1564   24978727.8404         39.0004
        22.5004
  -1282270.86749  -1466516.47147  23894555.3674   23894554.5594         39.0004
        26.0004
  -6070265.94949  -5848068.44846  23273759.4144   23273753.8834         40.0004
        21.5004
  -8322869.59049  -6341209.47347  23698485.5784   23698482.3714         43.7504
        29.2504
 -16379110.90249 -14093704.03848  20443574.7664   20443568.8444         52.0004
        49.5004
 -12489260.15649 -10112042.06448  21930735.9144   21930730.7194         49.5004
        39.7504
 07  1  1  0 35  0.0000000  0  7G13G31G25G23G27G19G16
  -5829641.72749  -4525599.94346  23114195.6724   23114190.7344         39.2504
        19.7504
   3982337.45749   2161945.21946  24999098.4144   24999096.7424         40.0004
        24.5004
  -1179760.42249  -1386638.31847  23914063.3364   23914062.0274         40.5004
        27.5004
  -5993986.71149  -5788630.18346  23288275.6564   23288269.3484         37.5004
        21.2504
  -8414345.40249  -6412489.30847  23681078.2344   23681075.0474         43.2504
        31.0004
 -16394659.83649 -14105820.09248  20440615.8594   20440609.6844         52.0004
        49.0004
 -12447350.31649 -10079385.07248  21938710.6954   21938706.0274         50.5004
        40.0004
 07  1  1  0 35 30.0000000  0  7G13G31G25G23G27G19G16
  -5791554.44149  -4495921.60846  23121443.4384   23121439.3134         38.5004
        20.2504
   4089456.18849   2245413.92246  25019482.1644   25019482.1094         37.5004
        24.5004
  -1077105.56249  -1306647.64547  23933597.6954   23933597.3674         38.5004
        27.0004
  -5917506.91849  -5729035.58546  23302828.7504   23302822.2624         38.0004
        20.0004
  -8505642.53549  -6483629.93247  23663705.6804   23663702.0474         45.0004
        31.5004
 -16409792.82049 -14117612.03648  20437735.9144   20437730.2734         52.0004
        49.0004
 -12405282.31249 -10046604.84748  21946716.1724   21946711.5634         50.0004
        39.7504
 07  1  1  0 36  0.0000000  0  7G13G31G25G23G27G19G16
  -5753010.85249  -4465887.70646  23128779.0554   23128775.5514         39.7504
        22.0004
   4196656.04348   2328945.89846  25039882.0554   25039881.4734         35.5004
        22.7504
   -974308.53149  -1226546.19347  23953160.8134   23953158.4574         42.0004
        28.7504
  -5840829.66848  -5669287.20346  23317420.6334   23317413.1844         35.2504
        19.0004
  -8596758.21149  -6554629.14747  23646366.9614   23646362.9734         44.0004
        31.7504
 -16424510.76249 -14129080.56848  20434935.4384   20434929.6094         51.7504
        49.5004
 -12363055.77349 -10013701.07648  21954751.4064   21954746.7074         50.5004
        40.0004
 07  1  1  0 36 30.0000000  0  7G13G31G25G23G27G19G16
  -5714013.93049  -4435500.50046  23136199.3284   23136195.1914         41.7504
        22.7504
   4303934.55548   2412539.05746  25060296.8594   25060296.0044         35.5004
        21.5004
   -871371.60549  -1146335.70647  23972748.9454   23972746.6374         42.5004
        27.2504
  -5763958.51248  -5609387.69446  23332048.4384   23332041.2934         34.2504
        19.0004
  -8687690.48849  -6625485.44547  23629063.1094   23629059.4454         44.5004
        31.7504
 -16438814.80949 -14140226.59448  20432213.4924   20432207.8134         52.2504
        49.5004
 -12320670.35949  -9980673.51048  21962817.0474   21962812.8554         50.5004
        39.7504
 07  1  1  0 37  0.0000000  0  7G13G31G25G23G27G19G16
  -5674565.25449  -4404761.32346  23143705.8054   23143701.7034         40.5004
        22.5004
   4411290.33648   2496192.38946  25080727.2114   25080726.0474         34.2504
        19.5004
   -768296.73849  -1066017.68247  23992363.4924   23992361.2504         41.5004
        26.2504
  -5686896.05948  -5549339.14146  23346711.6954   23346707.7304         31.5004
        20.5004
  -8778436.31649  -6696196.47347  23611794.5394   23611790.8554         44.5004
        31.5004
 -16452705.15249 -14151050.23948  20429570.2344   20429564.2234         53.0004
        49.5004
 -12278125.39549  -9947521.61148  21970913.3054   21970908.4884         51.2504
        39.7504
 07  1  1  0 37 30.0000000  0  7G13G31G25G23G27G19G16
  -5634668.00049  -4373672.54646  23151298.0554   23151295.1684         41.5004
        23.7504
   4518720.69149   2579903.82746  25101169.7734   25101170.1214         36.5004
        21.2504
   -665086.32449   -985594.12446  24012003.0234   24012001.1294         38.7504
        23.7504
  -5609646.38348  -5489144.58646  23361412.8674   23361407.1484         35.2504
        22.0004
  -8868993.85549  -6766760.79847  23594561.8834   23594558.4734         45.7504
        32.0004
 -16466183.31249 -14161552.69348  20427005.2424   20426999.5004         52.2504
        49.2504
 -12235420.62949  -9914245.20548  21979039.5164   21979035.4964         50.7504
        39.7504
 07  1  1  0 38  0.0000000  0  7G13G31G25G23G27G19G16
  -5594324.06249  -4342235.74546  23158975.8134   23158970.5984         40.7504
        22.0004
   4626223.84849   2663671.99946  25121628.0084   25121627.1054         36.2504
        21.7504
   -561742.32849   -905066.45346  24031669.1724   24031667.0354         38.7504
        24.5004
  -5532212.39548  -5428806.48146  23376149.3134   23376142.1994         33.2504
        20.5004
  -8959360.03949  -6837175.98647  23577365.2424   23577362.6684         44.7504
        31.2504
 -16479249.98049 -14171734.52348  20424518.8204   20424512.7384         51.5004
        49.2504
 -12192555.24249  -9880843.64348  21987196.6414   21987192.1484         50.2504
        40.0004
 07  1  1  0 38 30.0000000  0  6G13G25G23G27G19G16
  -5553535.87549  -4310452.77146  23166736.6254   23166733.4184         36.0004
        21.7504
   -458267.02049   -824436.48246  24051359.8754   24051357.8164         39.5004
        24.2504
                                  23390918.4454   23390911.5864         33.0004
        19.5004
  -9049532.57449  -6907440.31647  23560206.0084   23560203.0474         44.5004
        32.0004
 -16491905.80949 -14181596.20848  20422110.3364   20422104.5394         53.0004
        49.2504
 -12149528.95749  -9847316.70848  21995384.4924   21995380.1564         50.0004
        39.7504
 07  1  1  0 39  0.0000000  0  6G13G25G23G27G19G16
  -5512306.24249  -4278325.83546  23174582.7504   23174579.7304         42.0004
        22.5004
   -354662.89149   -743706.13546  24071075.1884   24071073.5394         38.7504
        22.5004
                                  23405723.2034   23405715.6764         30.5004
        19.5004
  -9139509.54749  -6977552.25347  23543084.3444   23543081.3524         45.2504
        32.5004
 -16504152.21949 -14191138.88048  20419780.4224   20419774.2074         52.7504
        49.5004
 -12106341.57049  -9813664.23448  22003602.5944   22003598.2814         50.2504
        40.0004
 07  1  1  0 39 30.0000000  0  5G13G25G27G19G16
  -5470637.04749  -4245856.35146  23182512.7114   23182508.0984         44.0004
        23.2504
   -250931.68749   -662876.64846  24090814.8364   24090812.1054         39.7504
        22.7504
  -9229288.12549  -7047509.58147  23526000.2584   23525996.5164         45.0004
        31.7504
 -16515989.60949 -14200362.82648  20417527.5944   20417521.7774         53.0004
        49.5004
 -12062992.30149  -9779885.60948  22011851.8834   22011847.4064         49.7504
        39.5004
 07  1  1  0 40  0.0000000  0  5G13G25G27G19G16
  -5428531.19549  -4213046.67246  23190524.8134   23190520.5314         42.7504
        24.5004
   -147075.95749   -581950.24746  24110577.5474   24110575.4414         39.2504
        22.7504
  -9318866.21149  -7117310.68347  23508954.6644   23508950.7274         43.7504
        32.5004
 -16527419.23049 -14209269.05048  20415352.6724   20415346.5704         52.7504
        49.2504
 -12019480.79349  -9745980.58147  22020131.7194   22020127.7194         50.5004
        39.2504
 07  1  1  0 40 30.0000000  0  5G13G25G27G19G16
  -5385991.20749  -4179898.63047  23198619.6484   23198615.7154         44.2504
        25.7504
    -43098.02749   -500928.52746  24130363.3674   24130362.2114         38.5004
        22.0004
  -9408241.43049  -7186953.67747  23491946.2584   23491942.5474         43.5004
        31.7504
 -16538442.34849 -14217858.48748  20413254.7814   20413249.2734         53.0004
        49.5004
 -11975806.86349  -9711948.97348  22028442.7664   22028437.8404         51.0004
        39.5004
 07  1  1  0 41  0.0000000  0  6G13G25G23G27G19G16
  -5343019.35249  -4146414.09746  23206797.7504   23206793.7544         42.5004
        25.5004
     61000.26249   -419813.14946  24150173.1644   24150171.0354         39.0004
        23.5004
                                  23465261.891                          33.000

